[{"lat":"49.499024","lng":"-119.5927667","id":2993908,"name":"0962945 Bc Ltd - The Bum Wrap","address":"285 Main St.","country":"Canada","state":"BC","city":"Penticton","postal":"V2A 5B1","priority":1,"apply_to_type":1},{"lat":"45.34445","lng":"-80.033463","id":2993909,"name":"2362571 Ontario Inc.\/Above & Beyond Your Expectations","address":"51 James Street","country":"Canada","state":"ON","city":"Parry Sound","postal":"P2A 1T6","priority":1,"apply_to_type":1},{"lat":"45.4350115","lng":"-71.8683755","id":2993910,"name":"9050-8268 Quebec Inc.\/Aloha Bikini","address":"830 13Th Ave North","country":"Canada","state":"QC","city":"Sherbrooke","postal":"J1E 3K3","priority":1,"apply_to_type":1},{"lat":"48.804709","lng":"-79.2077611","id":2993911,"name":"9065-5937 Quebec Ind\/Btq Karo","address":"257 1Er Rue Est","country":"Canada","state":"QC","city":"La Sarre","postal":"J9Z 2B7","priority":1,"apply_to_type":1},{"lat":"46.0618379","lng":"-71.9342657","id":2993912,"name":"9311-5541 Qc. Inc. - O2 Soleil","address":"600 Boul Jutras Est #90","country":"Canada","state":"QC","city":"Victoriaville","postal":"G6S 1C9","priority":1,"apply_to_type":1},{"lat":"46.8291544","lng":"-71.2790749","id":2993913,"name":"9338-0707 Qc Inc-Sport Radical","address":"325 Rue Marais Suite 190","country":"Canada","state":"QC","city":"Quebec","postal":"G1M 3R3","priority":1,"apply_to_type":1},{"lat":"30.5227999","lng":"-87.903923","id":2993914,"name":"Adrenaline Inc.","address":"328 Fairhope Ave","country":"USA","state":"AL","city":"Fairhope","postal":"36532","priority":1,"apply_to_type":1},{"lat":"35.1040556","lng":"-106.5667564","id":2993915,"name":"Altar'd State - Abq Uptown","address":"2260 Q St Ne Suite 3D","country":"USA","state":"NM","city":"Albuquerque","postal":"87110","priority":1,"apply_to_type":1},{"lat":"30.1712239","lng":"-92.0758293","id":2993916,"name":"Altar'd State - Acadiana Mall ","address":"5725 Johnston Street C138","country":"USA","state":"LA","city":"Lafeyette","postal":"70503","priority":1,"apply_to_type":1},{"lat":"29.499292","lng":"-98.480888","id":2993917,"name":"Altar'd State - Alamo Quarry Cr ","address":"7322 Jones Maltsberger","country":"USA","state":"TX","city":"San Antonio","postal":"78209","priority":1,"apply_to_type":1},{"lat":"30.2573622","lng":"-97.8072249","id":2993918,"name":"Altar'd State - Barton Creek Sq ","address":"2901 S Capital Texas Hwy","country":"USA","state":"TX","city":"Auston","postal":"78746","priority":1,"apply_to_type":1},{"lat":"37.1619631","lng":"-93.2674085","id":2993919,"name":"Altar'd State - Battlefield Mall","address":"2825 S Glenstone Ave Suite T03A","country":"USA","state":"MO","city":"Springfield","postal":"65804","priority":1,"apply_to_type":1},{"lat":"29.5428333","lng":"-95.1530899","id":2993920,"name":"Altar'd State - Baybrook Mall","address":"1350 Baybrook Mall ","country":"USA","state":"TX","city":"Friendswood","postal":"77546","priority":1,"apply_to_type":1},{"lat":"41.4981274","lng":"-81.4942496","id":2993921,"name":"Altar'd State - Beachwood Place","address":"26300 Cedar Rd #1255","country":"USA","state":"OH","city":"Beachwood","postal":"44122","priority":1,"apply_to_type":1},{"lat":"35.4851106","lng":"-82.5549167","id":2993922,"name":"Altar'd State - Biltmore Pk Town ","address":"19 Town Square Blvd","country":"USA","state":"NC","city":"Asheville","postal":"28803","priority":1,"apply_to_type":1},{"lat":"42.2403679","lng":"-83.7475749","id":2993923,"name":"Altar'd State - Brairwood","address":"100 Briarwood Cir","country":"USA","state":"MI","city":"Ann Arbor","postal":"48108","priority":1,"apply_to_type":1},{"lat":"34.715639","lng":"-86.673392","id":2993924,"name":"Altar'd State - Bridge St Twn Ctr ","address":"315 The Bridge St ","country":"USA","state":"AL","city":"Huntsville","postal":"35806","priority":1,"apply_to_type":1},{"lat":"32.2994491","lng":"-95.3020653","id":2993925,"name":"Altar'd State - Broadway Square ","address":"4601 South Broadway Ave","country":"USA","state":"TX","city":"Tyler","postal":"75703","priority":1,"apply_to_type":1},{"lat":"33.47052","lng":"-86.7711578","id":2993926,"name":"Altar'd State - Brookwood Village","address":"722 Brookwood Village","country":"USA","state":"AL","city":"Birmingham","postal":"35209","priority":1,"apply_to_type":1},{"lat":"42.482425","lng":"-71.2148957","id":2993927,"name":"Altar'd State - Burlington Mall","address":"75 Middlesex Turnpike","country":"USA","state":"MA","city":"Burlington","postal":"1803","priority":1,"apply_to_type":1},{"lat":"38.35421","lng":"-81.6378868","id":2993928,"name":"Altar'd State - Charleston Town Center ","address":"1095 Charleston Town Center","country":"USA","state":"WV","city":"Charleston","postal":"25389","priority":1,"apply_to_type":1},{"lat":"39.7169025","lng":"-104.9566822","id":2993929,"name":"Altar'd State - Cherry Creek","address":"3000 E 1St Ave Suite 1120","country":"USA","state":"CO","city":"Denver","postal":"80206","priority":1,"apply_to_type":1},{"lat":"29.7794261","lng":"-95.560332","id":2993930,"name":"Altar'd State - Citycentre","address":"796 Town And Country Blvd Suite 12","country":"USA","state":"TX","city":"Houston","postal":"77024","priority":1,"apply_to_type":1},{"lat":"39.9977791","lng":"-86.1301323","id":2993931,"name":"Altar'd State - Clay Terrace ","address":"14400 Clay Terrace Blvd","country":"USA","state":"IN","city":"Carmel","postal":"46032","priority":1,"apply_to_type":1},{"lat":"34.1535941","lng":"-84.1768731","id":2993932,"name":"Altar'd State - Collection Forsyth","address":"410 Peachtree Parkway","country":"USA","state":"GA","city":"Cumming","postal":"30041","priority":1,"apply_to_type":1},{"lat":"38.9639133","lng":"-92.3755003","id":2993933,"name":"Altar'd State - Columbia Mall ","address":"2300 Bernadette Drive","country":"USA","state":"MO","city":"Columbia","postal":"65203","priority":1,"apply_to_type":1},{"lat":"34.077884","lng":"-81.1564883","id":2993934,"name":"Altar'd State - Columbiana Center","address":"100 Columbiana Circle","country":"USA","state":"SC","city":"Columbia","postal":"29212","priority":1,"apply_to_type":1},{"lat":"32.0081198","lng":"-102.1560876","id":2993935,"name":"Altar'd State - Commons At N Park ","address":"2900 W Loop 250 N","country":"USA","state":"TX","city":"Midland","postal":"79705","priority":1,"apply_to_type":1},{"lat":"35.9571186","lng":"-86.8135376","id":2993936,"name":"Altar'd State - Cool Springs Gall","address":"1800 Galleria Blvd Suite #1162","country":"USA","state":"TN","city":"Franklin","postal":"37067","priority":1,"apply_to_type":1},{"lat":"43.0347413","lng":"-88.1639096","id":2993937,"name":"Altar'd State - Corner Brookfield","address":"285 High Street ","country":"USA","state":"WI","city":"Brookfield","postal":"53045","priority":1,"apply_to_type":1},{"lat":"39.041983","lng":"-94.5919928","id":2993938,"name":"Altar'd State - Country Club Plaza","address":"4706 Broadway Blvd","country":"USA","state":"MO","city":"Kansas City","postal":"64112","priority":1,"apply_to_type":1},{"lat":"35.8418174","lng":"-78.6802646","id":2993939,"name":"Altar'd State - Crabtree Valley M ","address":"4325 Glenwood Ave","country":"USA","state":"NC","city":"Raleigh","postal":"27612","priority":1,"apply_to_type":1},{"lat":"39.0248135","lng":"-84.5774783","id":2993940,"name":"Altar'd State - Crestview Hills ","address":"2807 Town Center Blvd","country":"USA","state":"KY","city":"Crestview Hills","postal":"41017","priority":1,"apply_to_type":1},{"lat":"41.4593007","lng":"-81.9517782","id":2993941,"name":"Altar'd State - Crocker Park","address":"211 Crocker Park Blvd","country":"USA","state":"OH","city":"Westlake","postal":"44145","priority":1,"apply_to_type":1},{"lat":"35.7548028","lng":"-83.9710915","id":2993942,"name":"Altar'd State - Dc Fullfil Ctr","address":"Altard State Dc Fullfil Ctr","country":"USA","state":"TN","city":"Maryville","postal":"37801","priority":1,"apply_to_type":1},{"lat":"35.7487181","lng":"-84.0203216","id":2993943,"name":"Altar'd State - Dc Fullfil Ctr ","address":"307 Excellence Way","country":"USA","state":"TN","city":"Maryville","postal":"37801","priority":1,"apply_to_type":1},{"lat":"39.3078345","lng":"-84.3204115","id":2993944,"name":"Altar'd State - Deerfield Towne C ","address":"5395 Deerfield Blvd","country":"USA","state":"OH","city":"Mason","postal":"45040","priority":1,"apply_to_type":1},{"lat":"35.7487181","lng":"-84.0203216","id":2993945,"name":"Altar'd State - Ecommerce ","address":"307 Excellence Way","country":"USA","state":"TN","city":"Maryville","postal":"37801","priority":1,"apply_to_type":1},{"lat":"39.9146201","lng":"-86.11124","id":2993946,"name":"Altar'd State - F Mall Keystone ","address":"8702 Keystone Crossing","country":"USA","state":"IN","city":"Indianapolis","postal":"46240","priority":1,"apply_to_type":1},{"lat":"38.8625497","lng":"-77.3591234","id":2993947,"name":"Altar'd State - Fair Oaks Mall","address":"11750 Fair Oaks Mall ","country":"USA","state":"VA","city":"Fairfax","postal":"22033","priority":1,"apply_to_type":1},{"lat":"37.9886662","lng":"-84.5281844","id":2993948,"name":"Altar'd State - Fayette Mall ","address":"3655 Nicholasville Rd ","country":"USA","state":"KY","city":"Lexington","postal":"40503","priority":1,"apply_to_type":1},{"lat":"38.86394","lng":"-77.060118","id":2993949,"name":"Altar'd State - Fctr Pentagon City","address":"1100 S Hayes St Space E08B","country":"USA","state":"VA","city":"Arlington","postal":"22202","priority":1,"apply_to_type":1},{"lat":"31.7707749","lng":"-106.3711151","id":2993950,"name":"Altar'd State - Fountains Farah ","address":"8889 Gateway Blvd W","country":"USA","state":"TX","city":"El Paso","postal":"79925","priority":1,"apply_to_type":1},{"lat":"41.6940729","lng":"-83.6394451","id":2993952,"name":"Altar'd State - Franklin Park Mall","address":"5001 Monroe Street Space 1730","country":"USA","state":"OH","city":"Toledo","postal":"43623","priority":1,"apply_to_type":1},{"lat":"32.9290218","lng":"-96.8200386","id":2993953,"name":"Altar'd State - Galleria Dallas ","address":"13350 Dallas Parkway ","country":"USA","state":"TX","city":"Dallas","postal":"75240","priority":1,"apply_to_type":1},{"lat":"30.3786485","lng":"-86.3135086","id":2993954,"name":"Altar'd State - Grand Boulevard ","address":"560 Grand Boulevard","country":"USA","state":"FL","city":"Miramar Beach","postal":"32550","priority":1,"apply_to_type":1},{"lat":"39.6933617","lng":"-84.1028949","id":2993955,"name":"Altar'd State - Green Town Center","address":"4437 Glengarry Dr","country":"USA","state":"OH","city":"Beavercreek","postal":"45440","priority":1,"apply_to_type":1},{"lat":"38.0231429","lng":"-84.4207954","id":2993956,"name":"Altar'd State - Hamburg Pavillion ","address":"2304 Sir Barton Way ","country":"USA","state":"KY","city":"Lexington","postal":"40509","priority":1,"apply_to_type":1},{"lat":"35.0346042","lng":"-85.1595524","id":2993957,"name":"Altar'd State - Hamilton Place","address":"2100 Hamilton Place Blvd","country":"USA","state":"TN","city":"Chattanooga","postal":"37421","priority":1,"apply_to_type":1},{"lat":"36.0699383","lng":"-80.301057","id":2993958,"name":"Altar'd State - Hanes Mall","address":"3320 Silas Creek Parkway Space Au55","country":"USA","state":"NC","city":"Winston-Salem","postal":"27103","priority":1,"apply_to_type":1},{"lat":"34.8499322","lng":"-82.3335845","id":2993959,"name":"Altar'd State - Haywood Mall ","address":"700 Haywood Rd","country":"USA","state":"SC","city":"Greenville","postal":"29607","priority":1,"apply_to_type":1},{"lat":"36.1363974","lng":"-86.8012606","id":2993960,"name":"Altar'd State - Hillsboro Village","address":"1803 21St Ave S","country":"USA","state":"TN","city":"Nashville","postal":"37212","priority":1,"apply_to_type":1},{"lat":"27.9656353","lng":"-82.521205","id":2993961,"name":"Altar'd State - Intl Plaza","address":"2223 N Westshore Blvd #162","country":"USA","state":"FL","city":"Tampa","postal":"33607","priority":1,"apply_to_type":1},{"lat":"41.5860729","lng":"-93.8080782","id":2993962,"name":"Altar'd State - Jordan Crk Twnctr","address":"101 Jordan Creek Pkwy #11080","country":"USA","state":"IA","city":"West Des Moines","postal":"50266","priority":1,"apply_to_type":1},{"lat":"39.2023243","lng":"-84.377147","id":2993963,"name":"Altar'd State - Kenwood Towne Ctr","address":"7875 Montgomery Rd Space 2127","country":"USA","state":"OH","city":"Cincinnati","postal":"45236","priority":1,"apply_to_type":1},{"lat":"40.0883025","lng":"-75.3898436","id":2993964,"name":"Altar'd State - King Prussia Mall","address":"350 Mall Blvd #3048","country":"USA","state":"PA","city":"King Of Prussia","postal":"19406","priority":1,"apply_to_type":1},{"lat":"36.8165717","lng":"-76.0711448","id":2993965,"name":"Altar'd State - Lynnhaven Mall","address":"701 Lynnhaven Pkwy #1065","country":"USA","state":"VA","city":"Virginia Beach","postal":"23452","priority":1,"apply_to_type":1},{"lat":"36.1072983","lng":"-86.8160717","id":2993966,"name":"Altar'd State - Mall Green Hills","address":"2126 Abbott Martin Rd","country":"USA","state":"TN","city":"Nashville","postal":"37215","priority":1,"apply_to_type":1},{"lat":"44.8557166","lng":"-93.2431816","id":2993967,"name":"Altar'd State - Mall Of America","address":"60 E Broadway N105","country":"USA","state":"MN","city":"Bloomington","postal":"55425","priority":1,"apply_to_type":1},{"lat":"34.0647052","lng":"-83.9841147","id":2993968,"name":"Altar'd State - Mall Of Georgia ","address":"3333 Buford Drive","country":"USA","state":"GA","city":"Buford","postal":"30519","priority":1,"apply_to_type":1},{"lat":"30.3882809","lng":"-91.0865791","id":2993969,"name":"Altar'd State - Mall Of Louisiana ","address":"6401 Blubonnet Blvd","country":"USA","state":"LA","city":"Baton Rouge","postal":"70836","priority":1,"apply_to_type":1},{"lat":"34.2426393","lng":"-77.8303626","id":2993970,"name":"Altar'd State - Mayfaire Town Ctr","address":"6849 Main St","country":"USA","state":"NC","city":"Wilmington","postal":"28405","priority":1,"apply_to_type":1},{"lat":"33.1947217","lng":"-87.5272106","id":2993971,"name":"Altar'd State - Midtown Village ","address":"1800 Mcfarland Blvd","country":"USA","state":"AL","city":"Tuscaloosa","postal":"35404","priority":1,"apply_to_type":1},{"lat":"38.9536069","lng":"-94.7202709","id":2993972,"name":"Altar'd State - Oak Park Mall","address":"11149 W 95Th St","country":"USA","state":"KS","city":"Overland Park","postal":"66214","priority":1,"apply_to_type":1},{"lat":"41.8518865","lng":"-87.9523949","id":2993973,"name":"Altar'd State - Oakbrook Center","address":"425 Oakbrook Center","country":"USA","state":"IL","city":"Oak Brook","postal":"60523","priority":1,"apply_to_type":1},{"lat":"38.2470462","lng":"-85.6099166","id":2993974,"name":"Altar'd State - Oxmoor Center ","address":"7900 Shelbyville Rd","country":"USA","state":"KY","city":"Louisville","postal":"40222","priority":1,"apply_to_type":1},{"lat":"39.5632726","lng":"-104.8777911","id":2993975,"name":"Altar'd State - Park Meadows","address":"8405 Park Meadows Center Dr Suite 1097","country":"USA","state":"CO","city":"Lone Tree","postal":"80124","priority":1,"apply_to_type":1},{"lat":"34.7533624","lng":"-92.3428118","id":2993976,"name":"Altar'd State - Park Plaza Mall","address":"6000 W Markham St Space 2006","country":"USA","state":"AR","city":"Little Rock","postal":"72205","priority":1,"apply_to_type":1},{"lat":"35.5250031","lng":"-97.544552","id":2993977,"name":"Altar'd State - Penn Square Mall","address":" 1901 Northwest Expy","country":"USA","state":"OK","city":"Oklahoma City","postal":"73118","priority":1,"apply_to_type":1},{"lat":"33.9238128","lng":"-84.3409798","id":2993978,"name":"Altar'd State - Perimeter Mall","address":"4400 Ashford Dunwoody Rd Suite 2590","country":"USA","state":"GA","city":"Atlanta","postal":"30346","priority":1,"apply_to_type":1},{"lat":"30.3789438","lng":"-91.0933924","id":2993979,"name":"Altar'd State - Perkins Rowe","address":"10155 Perkins Rowe Space D190","country":"USA","state":"LA","city":"Baton Rouge","postal":"70810","priority":1,"apply_to_type":1},{"lat":"35.9017428","lng":"-84.1597053","id":2993980,"name":"Altar'd State - Pinn Turkey Creek ","address":"11341 Parkside Dr","country":"USA","state":"TN","city":"Knoxville","postal":"37934","priority":1,"apply_to_type":1},{"lat":"36.3058036","lng":"-94.1757714","id":2993981,"name":"Altar'd State - Pinnacle Hills ","address":"2203 Promenade Blvd","country":"USA","state":"AR","city":"Roger","postal":"72758","priority":1,"apply_to_type":1},{"lat":"40.1456242","lng":"-82.9820576","id":2993982,"name":"Altar'd State - Polaris Fashionpl ","address":"1500 Polaris Pkwy","country":"USA","state":"OH","city":"Columbus","postal":"43240","priority":1,"apply_to_type":1},{"lat":"40.5597705","lng":"-75.4103098","id":2993983,"name":"Altar'd State - Prom Shops Saucon Valley","address":"2880 Center Valley Pkwy Suite 613","country":"USA","state":"PA","city":"Center Valley","postal":"18034","priority":1,"apply_to_type":1},{"lat":"34.7677066","lng":"-92.4599914","id":2993984,"name":"Altar'd State - Promenade Chenal ","address":"17821 Chenal Parkway","country":"USA","state":"AR","city":"Little Rock","postal":"72223","priority":1,"apply_to_type":1},{"lat":"39.8788271","lng":"-74.919718","id":2993985,"name":"Altar'd State - Promenade Sagemore","address":"500 Route 73 S Suite A8","country":"USA","state":"NJ","city":"Marlton","postal":"8053","priority":1,"apply_to_type":1},{"lat":"32.4360655","lng":"-90.1472341","id":2993986,"name":"Altar'd State - Renaiss Colony Pk","address":"1000 Highland Colony Pkwy Ste 5009","country":"USA","state":"MS","city":"Ridgeland","postal":"39157","priority":1,"apply_to_type":1},{"lat":"29.7154108","lng":"-95.4173351","id":2993987,"name":"Altar'd State - Rice Village","address":"2530 University Blvd","country":"USA","state":"TX","city":"Houston","postal":"77055","priority":1,"apply_to_type":1},{"lat":"45.0130067","lng":"-93.1697689","id":2993988,"name":"Altar'd State - Rosedale Center","address":"1595 Highway 36 W","address2":"10 Rosedale Center","country":"USA","state":"MN","city":"Roseville","postal":"55113","priority":1,"apply_to_type":1},{"lat":"40.5445685","lng":"-80.0087509","id":2993989,"name":"Altar'd State - Ross Park Mall ","address":"1000 Ross Park Mall Dr","country":"USA","state":"PA","city":"Pittsburgh","postal":"15237","priority":1,"apply_to_type":1},{"lat":"32.4473001","lng":"-93.7194054","id":2993990,"name":"Altar'd State - Shoppes Bellmeade ","address":" 6535 Youree Drive","country":"USA","state":"LA","city":"Shreveport","postal":"71105","priority":1,"apply_to_type":1},{"lat":"29.5935398","lng":"-98.6145043","id":2993991,"name":"Altar'd State - Shops La Cantera ","address":"15900 La Cantera Pkwy","country":"USA","state":"TX","city":"San Antonio","postal":"78256","priority":1,"apply_to_type":1},{"lat":"38.0650929","lng":"-78.4923469","id":2993992,"name":"Altar'd State - Shops Stonefield ","address":"2055 Bond Street ","country":"USA","state":"VA","city":"Charlottesville","postal":"22901","priority":1,"apply_to_type":1},{"lat":"37.6561411","lng":"-77.619383","id":2993993,"name":"Altar'd State - Short Pump Twn Ctr","address":" 11800 W Broad St ","country":"USA","state":"VA","city":"Richmond","postal":"23233","priority":1,"apply_to_type":1},{"lat":"42.5630174","lng":"-83.185384","id":2993994,"name":"Altar'd State - Somerset Collection","address":"2800 W Big Beaver Rd Suite S-214","country":"USA","state":"MI","city":"Troy","postal":"48084","priority":1,"apply_to_type":1},{"lat":"40.3422239","lng":"-80.0555936","id":2993995,"name":"Altar'd State - South Hills Village","address":"301 South Hills Village Space 2320D","country":"USA","state":"PA","city":"Pittsburgh","postal":"15241","priority":1,"apply_to_type":1},{"lat":"32.9428148","lng":"-97.129502","id":2993996,"name":"Altar'd State - Southlake Twn Sq ","address":"1450 Main Street","country":"USA","state":"TX","city":"Southlake","postal":"76092","priority":1,"apply_to_type":1},{"lat":"35.1522311","lng":"-80.8318968","id":2993997,"name":"Altar'd State - Southpark Mall","address":"4400 Sharon Road E14D","country":"USA","state":"NC","city":"Charlotte","postal":"28211","priority":1,"apply_to_type":1},{"lat":"30.2563335","lng":"-81.5249277","id":2993998,"name":"Altar'd State - St Johns Twn Ctr ","address":"4751 River City Dr","country":"USA","state":"FL","city":"Jacksonville","postal":"32246","priority":1,"apply_to_type":1},{"lat":"38.6349583","lng":"-90.3480971","id":2993999,"name":"Altar'd State - St Louis Galleria","address":"1155  Saint Louis Galleria","country":"USA","state":"MO","city":"St Louis","postal":"63117","priority":1,"apply_to_type":1},{"lat":"33.0991992","lng":"-96.81132","id":2994000,"name":"Altar'd State - Stonebriar Center ","address":"2601 Preston Rd","country":"USA","state":"TX","city":"Frisco","postal":"75034","priority":1,"apply_to_type":1},{"lat":"35.9052172","lng":"-78.9439388","id":2994001,"name":"Altar'd State - Street Southpoint ","address":" 6910 Fayetteville Rd","country":"USA","state":"NC","city":"Durham","postal":"27713","priority":1,"apply_to_type":1},{"lat":"29.5958677","lng":"-95.622755","id":2994002,"name":"Altar'd State - Sugarland Twn Sq","address":"16100 City Walk ","country":"USA","state":"TX","city":"Sugar Land","postal":"77479","priority":1,"apply_to_type":1},{"lat":"41.1339533","lng":"-81.6175508","id":2994003,"name":"Altar'd State - Summit Mall","address":"3265 W Market St #456","country":"USA","state":"OH","city":"Akron","postal":"44333","priority":1,"apply_to_type":1},{"lat":"33.9522801","lng":"-84.6596201","id":2994004,"name":"Altar'd State - The Ave West Cobb ","address":"3625 Dallas Highway","country":"USA","state":"GA","city":"Marietta","postal":"30064","priority":1,"apply_to_type":1},{"lat":"35.8593105","lng":"-86.4438993","id":2994005,"name":"Altar'd State - The Avenue ","address":"2615 Medical Ctr Pkwy","country":"USA","state":"TN","city":"Murfreesboro","postal":"37129","priority":1,"apply_to_type":1},{"lat":"30.4015393","lng":"-97.7268185","id":2994006,"name":"Altar'd State - The Domain ","address":"11410 Century Oaks Ter","country":"USA","state":"TX","city":"Austin","postal":"78758","priority":1,"apply_to_type":1},{"lat":"29.657234","lng":"-82.4113423","id":2994007,"name":"Altar'd State - The Oaks Mall","address":"6419 West Newberry Rd Space L10","country":"USA","state":"FL","city":"Gainesville","postal":"32605","priority":1,"apply_to_type":1},{"lat":"33.448364","lng":"-86.7321762","id":2994008,"name":"Altar'd State - The Summit","address":"200 Summit Blvd Suite 300 ","country":"USA","state":"AL","city":"Birmingham","postal":"35243","priority":1,"apply_to_type":1},{"lat":"38.9146351","lng":"-94.6466391","id":2994009,"name":"Altar'd State - Town Center Plaza ","address":"5238 W 119Th","country":"USA","state":"KS","city":"Leawood","postal":"66209","priority":1,"apply_to_type":1},{"lat":"40.0170629","lng":"-105.2555003","id":2994010,"name":"Altar'd State - Twenty Ninth St","address":"1710 29Th Street","country":"USA","state":"CO","city":"Boulder","postal":"80301","priority":1,"apply_to_type":1},{"lat":"38.9165953","lng":"-77.2213817","id":2994011,"name":"Altar'd State - Tysons Corner Ctr","address":"7984 Tysons Corner Center","country":"USA","state":"VA","city":"Tysons Corner","postal":"22102","priority":1,"apply_to_type":1},{"lat":"32.7282981","lng":"-97.36288","id":2994012,"name":"Altar'd State - University Pk Vlg","address":"1612 S University Dr","country":"USA","state":"TX","city":"Fort Worth","postal":"76107","priority":1,"apply_to_type":1},{"lat":"37.3082564","lng":"-79.9707863","id":2994013,"name":"Altar'd State - Valley View Mall","address":"4802 Valley View Blvd Northwest Suite Lb80","country":"USA","state":"VA","city":"Roanoke","postal":"24012","priority":1,"apply_to_type":1},{"lat":"39.0902023","lng":"-77.5245899","id":2994014,"name":"Altar'd State - Village Leesburg ","address":"1604 Vill Markt Blvd Se","country":"USA","state":"VA","city":"Leesburg","postal":"20175","priority":1,"apply_to_type":1},{"lat":"41.2606989","lng":"-96.184381","id":2994015,"name":"Altar'd State - Village Pointe","address":"17255 Davenport St Suite 127","country":"USA","state":"NE","city":"Omaha","postal":"68118","priority":1,"apply_to_type":1},{"lat":"41.8979875","lng":"-87.6232418","id":2994016,"name":"Altar'd State - Water Tower Pl Mal","address":"835 N Michigan Ave","country":"USA","state":"IL","city":"Chicago","postal":"60611","priority":1,"apply_to_type":1},{"lat":"33.0877212","lng":"-96.6836423","id":2994017,"name":"Altar'd State - Watters Creek ","address":"915 Watters Creek Blvd","country":"USA","state":"TX","city":"Allen","postal":"75013","priority":1,"apply_to_type":1},{"lat":"38.6014646","lng":"-90.4461935","id":2994018,"name":"Altar'd State - West Country Ctr ","address":"20 West Country","country":"USA","state":"MO","city":"Des Peres","postal":"63131","priority":1,"apply_to_type":1},{"lat":"35.9244853","lng":"-84.0383972","id":2994019,"name":"Altar'd State - West Town Mall ","address":"7600 Kingston Pike ","country":"USA","state":"TN","city":"Knoxville","postal":"37919","priority":1,"apply_to_type":1},{"lat":"39.0238824","lng":"-77.1462245","id":2994020,"name":"Altar'd State - Westfield Montgomery","address":"7101 Democracy Blvd Space 1334","country":"USA","state":"MD","city":"Bethesda","postal":"20817","priority":1,"apply_to_type":1},{"lat":"31.2540367","lng":"-85.4243382","id":2994021,"name":"Altar'd State - Wiregrass Commons ","address":"900 Commons Drive ","country":"USA","state":"AL","city":"Dothan","postal":"36303","priority":1,"apply_to_type":1},{"lat":"42.0464268","lng":"-88.0369271","id":2994022,"name":"Altar'd State - Woodfield Mall","address":"5 Woodfield Mall J314","country":"USA","state":"IL","city":"Schaumburg","postal":"60173","priority":1,"apply_to_type":1},{"lat":"36.0628023","lng":"-95.880112","id":2994023,"name":"Altar'd State - Woodland Hills Mall ","address":"7021 South Memorial Dr","country":"USA","state":"OK","city":"Tulsa","postal":"74133","priority":1,"apply_to_type":1},{"lat":"42.9159791","lng":"-85.5882943","id":2994024,"name":"Altar'd State - Woodland Mall","address":"3195 28Th St Se","country":"USA","state":"MI","city":"Kentwood","postal":"49512","priority":1,"apply_to_type":1},{"lat":"30.1645185","lng":"-95.4538295","id":2994025,"name":"Altar'd State - Woodlands Mall","address":"1201 Lake Woodlands Dr","country":"USA","state":"TX","city":"The Woodlands","postal":"77380","priority":1,"apply_to_type":1},{"lat":"39.2517453","lng":"-94.6652384","id":2994026,"name":"Altar'd State - Zona Rosa ","address":"7420 Nw 87Th Street","country":"USA","state":"MO","city":"Kansas City","postal":"64153","priority":1,"apply_to_type":1},{"lat":"32.4360655","lng":"-90.1472341","id":2994027,"name":"Altard State Renaissance Colpk ","address":"1000 Highland Colony Pky","country":"USA","state":"MS","city":"Ridgeland","postal":"39157","priority":1,"apply_to_type":1},{"lat":"36.0866516","lng":"-79.8372672","id":2994028,"name":"Altard State Shop Friendly Ctr ","address":"3326 W Friendly Ave","country":"USA","state":"NC","city":"Greensboro","postal":"27410","priority":1,"apply_to_type":1},{"lat":"26.0211448","lng":"-80.115225","id":2994029,"name":"Aqua Shop Inc.","address":"1416 N Boardwalk","country":"USA","state":"FL","city":"Hollywood","postal":"33019","priority":1,"apply_to_type":1},{"lat":"33.7074191","lng":"-78.9042911","id":2994030,"name":"Ariel's Surf & Sport Inc.","address":"779 Commerce Place","country":"USA","state":"SC","city":"Myrtle Beach","postal":"29577","priority":1,"apply_to_type":1},{"lat":"48.404528","lng":"-71.055568","id":2994031,"name":"Atmosphere \/ Sports Experts","address":"Place Du Royaume ","address2":"1401 boul. Talbot","country":"Canada","state":"QC","city":"Chicoutimi","postal":"G7H 5N6","priority":1,"apply_to_type":1},{"lat":"45.8994578","lng":"-72.5176124","id":2994032,"name":"Atmosphere \/ Sports Experts","address":"Promenades Drummondville ","address2":"755 boul. Rene-Levesque","country":"Canada","state":"QC","city":"Drummondville","postal":"J2C 6Y7","priority":1,"apply_to_type":1},{"lat":"45.4757747","lng":"-75.6971892","id":2994033,"name":"Atmosphere \/ Sports Experts","address":"Promenades Gatineau ","address2":"1100 boul. Maloney Ouest","country":"Canada","state":"QC","city":"Gatineau","postal":"J8T 6G3","priority":1,"apply_to_type":1},{"lat":"45.4318884","lng":"-75.7826316","id":2994034,"name":"Atmosphere \/ Sports Experts","address":"Plateau Des Grives ","address2":"207 boul. des Grives","country":"Canada","state":"QC","city":"Gatineau","postal":"J9A 0C7","priority":1,"apply_to_type":1},{"lat":"46.0328599","lng":"-73.4243556","id":2994035,"name":"Atmosphere \/ Sports Experts","address":"Galeries Joliette ","address2":"1075 boul. Firestone","country":"Canada","state":"QC","city":"Joliette","postal":"J6E 6X6","priority":1,"apply_to_type":1},{"lat":"45.4476961","lng":"-73.6155388","id":2994036,"name":"Atmosphere \/ Sports Experts","address":"Carrefour Angrignon ","address2":"7077 boul. Newman","country":"Canada","state":"QC","city":"Lasalle","postal":"H8N 1X1","priority":1,"apply_to_type":1},{"lat":"46.1192529","lng":"-74.5693902","id":2994037,"name":"Atmosphere","address":"348 Rue Saint-Jovite","country":"Canada","state":"QC","city":"Mont-Tremblant","postal":"J8E 2Z9","priority":1,"apply_to_type":1},{"lat":"45.514792","lng":"-73.563207","id":2994038,"name":"Atmosphere","address":"1610 Rue St-Denis","country":"Canada","state":"QC","city":"Montreal","postal":"H2X 3K2","priority":1,"apply_to_type":1},{"lat":"45.3987937","lng":"-71.9299387","id":2994039,"name":"Atmosphere","address":"2325 Rue King Ouest","country":"Canada","state":"QC","city":"Sherbrooke","postal":"J1J 2G2","priority":1,"apply_to_type":1},{"lat":"45.8914189","lng":"-74.1475938","id":2994040,"name":"Atmosphere","address":"Factories St-Sauveur ","address2":"190 Chemin du Lac Millette","country":"Canada","state":"QC","city":"St-Sauveur","postal":"J0R 1R6","priority":1,"apply_to_type":1},{"lat":"48.0956425","lng":"-77.8268375","id":2994041,"name":"Atmosphere \/ Sports Experts","address":"Carrefour Du Nord-Ouest ","address2":"1801 3e Avenue","country":"Canada","state":"QC","city":"Vall-D'Or","postal":"J9P 5K1","priority":1,"apply_to_type":1},{"lat":"46.0592397","lng":"-71.9267949","id":2994042,"name":"Atmosphere \/ Sports Experts","address":"Grande Place Des Bois-Francs","address2":"1111 boul. Jutras E.","country":"Canada","state":"QC","city":"Victoriaville","postal":"G6S 1C1","priority":1,"apply_to_type":1},{"lat":"48.562232","lng":"-71.638567","id":2994043,"name":"Atmosphere \/ Sports Experts","address":"Le Centre Alma ","address2":"705 Avenue du Pont Nord","country":"Canada","state":"QC","city":"Alma","postal":"G8B 6T5","priority":1,"apply_to_type":1},{"lat":"45.6006305","lng":"-73.564644","id":2994044,"name":"Atmosphere \/ Sports Experts","address":"Galeries D'Anjou ","address2":"7999 boul. Galeries d'Anjou","country":"Canada","state":"QC","city":"Anjou","postal":"H1M 1W9","priority":1,"apply_to_type":1},{"lat":"46.8607756","lng":"-71.2173901","id":2994045,"name":"Atmosphere \/ Sports Experts","address":"Promenade Beauport ","address2":"3333 rue du Carrefour","country":"Canada","state":"QC","city":"Beauport","postal":"G1C 5R9","priority":1,"apply_to_type":1},{"lat":"45.5728876","lng":"-73.4050136","id":2994046,"name":"Atmosphere \/ Sports Experts","address":"Carrefour De La Rive-Sud ","address2":"582 Chemin de Touraine","country":"Canada","state":"QC","city":"Boucherville","postal":"J4B 5E4","priority":1,"apply_to_type":1},{"lat":"45.4717861","lng":"-73.4713168","id":2994047,"name":"Atmosphere \/ Sports Experts","address":"Mail Champlain ","address2":"2151 boul. Lapiniefre","country":"Canada","state":"QC","city":"Brossard","postal":"J4W 2T5","priority":1,"apply_to_type":1},{"lat":"45.4441226","lng":"-73.4377594","id":2994048,"name":"Atmosphere \/ Sports Experts","address":"Quartier Dix-30 ","address2":"9550 boul. Leduc","country":"Canada","state":"QC","city":"Brossard","postal":"J4Y 0B3","priority":1,"apply_to_type":1},{"lat":"45.5342583","lng":"-73.7913399","id":2994049,"name":"Atmosphere \/ Sports Experts","address":"Mega Centre Notre-Dame ","address2":"2336 Autoroute Chomedey","country":"Canada","state":"QC","city":"Laval","postal":"H7X 4G8","priority":1,"apply_to_type":1},{"lat":"45.6105648","lng":"-73.6986183","id":2994050,"name":"Atmosphere \/ Sports Experts","address":"Mega Centre Val-Des-Brises ","address2":"5030 boul. Robert Bourassa","country":"Canada","state":"QC","city":"Laval","postal":"H7E 0A6","priority":1,"apply_to_type":1},{"lat":"45.5708744","lng":"-73.7518581","id":2994051,"name":"Atmosphere \/ Sports Experts","address":"Carrefour Laval ","address2":"3035 boul. Le Carrefour","country":"Canada","state":"QC","city":"Laval","postal":"H7T 1C8","priority":1,"apply_to_type":1},{"lat":"46.796722","lng":"-71.170229","id":2994052,"name":"Atmosphere \/ Sports Experts","address":"Galeries Chagnon ","address2":"1200 boul. Alphonse-Desjardins","country":"Canada","state":"QC","city":"Levis","postal":"G6V 6Y8","priority":1,"apply_to_type":1},{"lat":"45.464035","lng":"-73.8313502","id":2994053,"name":"Atmosphere \/ Sports Experts","address":"Centre Fairview Pointe-Claire ","address2":"6815 route Transcanadienne","country":"Canada","state":"QC","city":"Pointe-Claire","postal":"H9R 5J1","priority":1,"apply_to_type":1},{"lat":"46.7829958","lng":"-71.2860696","id":2994054,"name":"Atmosphere \/ Sports Experts","address":"Place Ste-Foy ","address2":"2450 boul. Laurier","country":"Canada","state":"QC","city":"Quebec","postal":"G1V 2L1","priority":1,"apply_to_type":1},{"lat":"46.8436443","lng":"-71.2737316","id":2994055,"name":"Atmosphere \/ Sports Experts","address":"Mega Centre Le Bourgneuf ","address2":"200 rue Bouvier","country":"Canada","state":"QC","city":"Quebec","postal":"G2J 1R8","priority":1,"apply_to_type":1},{"lat":"46.830726","lng":"-71.299343","id":2994056,"name":"Atmosphere \/ Sports Experts","address":"Galeries De La Capitale ","address2":"5401 boul. des Galeries","country":"Canada","state":"AB","city":"Quebec","postal":"G2K 1N4","priority":1,"apply_to_type":1},{"lat":"46.7706734","lng":"-71.2849442","id":2994057,"name":"Atmosphere \/ Sports Experts","address":"Place Laurier ","address2":"2700 boul. Laurier 3iefme etage","country":"Canada","state":"QC","city":"Quebec","postal":"G1V 2L8","priority":1,"apply_to_type":1},{"lat":"45.74267","lng":"-73.458238","id":2994058,"name":"Atmosphere \/ Sports Experts","address":"Galeries Rive-Nord ","address2":"100 boul. Brien","country":"Canada","state":"QC","city":"Repentigny","postal":"J6A 5N4","priority":1,"apply_to_type":1},{"lat":"48.4678931","lng":"-68.5126452","id":2994059,"name":"Atmosphere \/ Sports Experts","address":"Carrefour Rimouski ","address2":"419 boul. Jessop","country":"Canada","state":"QC","city":"Rimouski","postal":"G5L 7Y5","priority":1,"apply_to_type":1},{"lat":"48.2397268","lng":"-79.0222656","id":2994060,"name":"Atmosphere \/ Sports Experts","address":"69 Rue Gamble Ouest","country":"Canada","state":"QC","city":"Rouyn-Noranda","postal":"J9X 2R3","priority":1,"apply_to_type":1},{"lat":"50.2187108","lng":"-66.3817138","id":2994061,"name":"Atmosphere \/ Sports Experts","address":"Place De Ville ","address2":"770 boul. Laure","country":"Canada","state":"QC","city":"Sept-Ile","postal":"G4R 1Y5","priority":1,"apply_to_type":1},{"lat":"46.5627353","lng":"-72.7394673","id":2994062,"name":"Atmosphere \/ Sports Experts","address":"La Plaza De La Mauricie ","address2":"1 rue La Plaza-de-Mauricie","country":"Canada","state":"QC","city":"Shawinigan","postal":"G9N 7C1","priority":1,"apply_to_type":1},{"lat":"45.5053044","lng":"-73.378516","id":2994063,"name":"Atmosphere \/ Sports Experts","address":"Promenades St-Bruno ","address2":"630 boul. Les Promenades","country":"Canada","state":"QC","city":"St-Bruno","postal":"J3V 6L9","priority":1,"apply_to_type":1},{"lat":"45.5612618","lng":"-73.8943264","id":2994064,"name":"Atmosphere \/ Sports Experts","address":"200 Boul. Arthur-Sauve","country":"Canada","state":"QC","city":"St-Eustache","postal":"J7R 2H9","priority":1,"apply_to_type":1},{"lat":"45.7941529","lng":"-74.0188684","id":2994065,"name":"Atmosphere \/ Sports Experts","address":"Carrefour Du Nord ","address2":"900 boul. Grignon","country":"Canada","state":"QC","city":"St-Jerome","postal":"J7Y 3S7","priority":1,"apply_to_type":1},{"lat":"45.702876","lng":"-73.6467692","id":2994066,"name":"Atmosphere \/ Sports Experts","address":"Galeries Terrebonne ","address2":"1185 rue Moody","country":"Canada","state":"QC","city":"Terrrebonne","postal":"J6W 3Z5","priority":1,"apply_to_type":1},{"lat":"46.3317242","lng":"-72.5733199","id":2994067,"name":"Atmosphere \/ Sports Experts","address":"2944 Boul. Des Recollets","country":"Canada","state":"QC","city":"Trois-Rivieres","postal":"G9A 6J2","priority":1,"apply_to_type":1},{"lat":"45.4127569","lng":"-74.0386111","id":2994068,"name":"Atmosphere \/ Sports Experts","address":"Les Avenues Vaudreuil ","address2":"3218 boul. de la Gare","country":"Canada","state":"QC","city":"Vaudreuil-Dorion","postal":"J7V 8W5","priority":1,"apply_to_type":1},{"lat":"45.5281968","lng":"-73.6481237","id":2994069,"name":"Atmosphere \/ Sports Experts","address":"Centre Rockland ","address2":"2305 Rockland Road","country":"Canada","state":"QC","city":"Ville Mont-Royal","postal":"H3P 3E9","priority":1,"apply_to_type":1},{"lat":"45.4972531","lng":"-73.7042536","id":2994070,"name":"Atmosphere \/ Sports Experts","address":"Place Vertu ","address2":"3275 boul. de la Cote Vertu","country":"Canada","state":"QC","city":"Ville St-Laurent","postal":"H4R 1Y5","priority":1,"apply_to_type":1},{"lat":"43.1574281","lng":"-79.2447516","id":2994071,"name":"Ausmosis Enterprises Inc","address":"144 Saint Paul Street","country":"Canada","state":"ON","city":"St. Catherines","postal":"L2R 3M2","priority":1,"apply_to_type":1},{"lat":"43.6831894","lng":"-114.3672773","id":2994072,"name":"Backwoods Mountain Sports","address":"711 N. Main Street","country":"USA","state":"ID","city":"Ketchum","postal":"83340","priority":1,"apply_to_type":1},{"lat":"26.924661","lng":"-82.359859","id":2994073,"name":"Barefoot Trader Inc.","address":"2025 N. Beach Road","country":"USA","state":"FL","city":"Englewood","postal":"34223","priority":1,"apply_to_type":1},{"lat":"39.9138751","lng":"-86.1057493","id":2994074,"name":"Beach Baby Surf And Swim Shop","address":"8687 River Crossing Blvd","country":"USA","state":"IN","city":"Indianapolis","postal":"46240","priority":1,"apply_to_type":1},{"lat":"27.2755967","lng":"-82.5640543","id":2994075,"name":"Beach Bazaar","address":"5211 Ocean Blvd","country":"USA","state":"FL","city":"Sarasota","postal":"34242","priority":1,"apply_to_type":1},{"lat":"44.0067397","lng":"-77.1432673","id":2994076,"name":"Beach Bum In The County","address":"165 Main Street","country":"Canada","state":"ON","city":"Picton","postal":"K0K 2T0","priority":1,"apply_to_type":1},{"lat":"49.0605896","lng":"-118.21377","id":2994077,"name":"Beach Bungalow","address":"2115 Hunter Frontage Rd.","country":"Canada","state":"BC","city":"Christina Lake","postal":"V0H 1E2","priority":1,"apply_to_type":1},{"lat":"26.1036566","lng":"-97.1673255","id":2994078,"name":"Beach Club","address":"2600 Padre Blvd","country":"USA","state":"TX","city":"South Padre Island","postal":"78597","priority":1,"apply_to_type":1},{"lat":"30.2909585","lng":"-81.3902126","id":2994079,"name":"Beachside Casuals","address":"234 N. 1St St.","country":"USA","state":"FL","city":"Jacksonville Beach","postal":"32250","priority":1,"apply_to_type":1},{"lat":"29.00206","lng":"-80.8764803","id":2994080,"name":"Beachwear Outlet Inc.","address":"4170 S Atlantic Ave","country":"USA","state":"FL","city":"New Smyrna","postal":"32169","priority":1,"apply_to_type":1},{"lat":"29.292199","lng":"-81.040793","id":2994081,"name":"Bikini Company","address":"235 E. Granada Blvd.","country":"USA","state":"FL","city":"Ormond Beach","postal":"32176","priority":1,"apply_to_type":1},{"lat":"33.500997","lng":"-111.9219624","id":2994082,"name":"Bikini Ranch Apparel Group Llc","address":"4413 N. Saddlebag Trail Unit 1","country":"USA","state":"AZ","city":"Scottsdale","postal":"85251","priority":1,"apply_to_type":1},{"lat":"45.6006305","lng":"-73.564644","id":2994083,"name":"Bikini Village","address":"Galeries D'Anjou ","address2":"7999 boul. les-Galeries-d'Anjou","country":"Canada","state":"QC","city":"Anjou","postal":"H1M 1W9","priority":1,"apply_to_type":1},{"lat":"44.410935","lng":"-79.705437","id":2994084,"name":"Bikini Village","address":"Georgian Mall ","address2":"509 Bayfield Street","country":"Canada","state":"ON","city":"Barrie","postal":"L4M 4Z8","priority":1,"apply_to_type":1},{"lat":"45.3351563","lng":"-72.6506375","id":2994085,"name":"Bikini Village","address":"Tanger Outlets Bromont ","address2":"525 Place Champetre","country":"Canada","state":"QC","city":"Bromont","postal":"J2L 0A2","priority":1,"apply_to_type":1},{"lat":"45.4441226","lng":"-73.4377594","id":2994086,"name":"Bikini Village","address":"Quartier Dix 30 ","address2":"9335 boul. Leduc","country":"Canada","state":"QC","city":"Brossard","postal":"J4Y 0A5","priority":1,"apply_to_type":1},{"lat":"45.4717861","lng":"-73.4713168","id":2994087,"name":"Bikini Village","address":"Mail Champlain ","address2":"2151 boul. Lapiniefre","country":"Canada","state":"QC","city":"Brossard","postal":"J4W 2T5","priority":1,"apply_to_type":1},{"lat":"43.325899","lng":"-79.820315","id":2994088,"name":"Bikini Village","address":"Mapleview Centre ","address2":"900 Maple Avenue","country":"Canada","state":"ON","city":"Burlington","postal":"L7S 2J8","priority":1,"apply_to_type":1},{"lat":"50.9981134","lng":"-114.0736316","id":2994089,"name":"Bikini Village","address":"Chinook Centre","address2":"6455 Macleod Trail SW","country":"Canada","state":"AB","city":"Calgary","postal":"T2H 0K8","priority":1,"apply_to_type":1},{"lat":"51.0845495","lng":"-114.1554","id":2994090,"name":"Bikini Village","address":"Market Mall ","address2":"3625 Shaganappi Trail NW","country":"Canada","state":"AB","city":"Calgary","postal":"T3A 0E2","priority":1,"apply_to_type":1},{"lat":"48.404528","lng":"-71.055568","id":2994091,"name":"Bikini Village","address":"Place Du Royaume ","address2":"1401 boul. Talbot","country":"Canada","state":"QC","city":"Chicoutimi","postal":"G7H 5N6","priority":1,"apply_to_type":1},{"lat":"44.1990319","lng":"-79.6514386","id":2994092,"name":"Bikini Village","address":"Tanger Outlets Cookstown ","address2":"3311 Simcoe County Road 89","country":"Canada","state":"ON","city":"Cookstown","postal":"L0L 1L0","priority":1,"apply_to_type":1},{"lat":"46.09622","lng":"-64.7607305","id":2994093,"name":"Bikini Village","address":"Champlain Place ","address2":"477 Paul Street","country":"Canada","state":"NB","city":"Dieppe","postal":"E1A 4X5","priority":1,"apply_to_type":1},{"lat":"45.8994578","lng":"-72.5176124","id":2994094,"name":"Bikini Village","address":"Promenades Drummondville","address2":"755 boul. Rene-Levesque","country":"Canada","state":"QC","city":"Drummondville","postal":"J2C 6Y7","priority":1,"apply_to_type":1},{"lat":"53.5225151","lng":"-113.6241906","id":2994095,"name":"Bikini Village","address":"West Edmonton Mall ","address2":"8882 170 Street","country":"Canada","state":"AB","city":"Edmonton","postal":"T5T 4M2","priority":1,"apply_to_type":1},{"lat":"43.6116463","lng":"-79.5570197","id":2994096,"name":"Bikini Village","address":"Sherway Gardens ","address2":"25 The West Mall","country":"Canada","state":"ON","city":"Etobicoke","postal":"M9C 1B8","priority":1,"apply_to_type":1},{"lat":"45.4757747","lng":"-75.6971892","id":2994097,"name":"Bikini Village","address":"Promenades Gatineau ","address2":"1100 boul. Maloney ouest","country":"Canada","state":"QC","city":"Gatineau","postal":"J8T 6G3","priority":1,"apply_to_type":1},{"lat":"45.4153561","lng":"-72.7502287","id":2994098,"name":"Bikini Village","address":"Galeries Granby","address2":"40 rue Evangeline","country":"Canada","state":"QC","city":"Granby","postal":"J2G 8K1","priority":1,"apply_to_type":1},{"lat":"44.649249","lng":"-63.618682","id":2994099,"name":"Bikini Village","address":"Halifax Shopping Centre ","address2":"7001 Mumford Road","country":"Canada","state":"NS","city":"Halifax","postal":"B3L 4R3","priority":1,"apply_to_type":1},{"lat":"43.2164749","lng":"-79.8620184","id":2994100,"name":"Bikini Village","address":"Lime Ridge Mall ","address2":"999 Upper Wentworth Street","country":"Canada","state":"ON","city":"Hamilton","postal":"L9A 4X5","priority":1,"apply_to_type":1},{"lat":"46.0328599","lng":"-73.4243556","id":2994101,"name":"Bikini Village","address":"Galeries Joliette ","address2":"1075 boul. Firestone","country":"Canada","state":"QC","city":"Joliette","postal":"J6E 6X6","priority":1,"apply_to_type":1},{"lat":"49.880243","lng":"-119.4400296","id":2994102,"name":"Bikini Village","address":"Orchard Park Shopping Centre ","address2":"2271 Harvey Avenue","country":"Canada","state":"BC","city":"Kelowna","postal":"V1Y 6H2","priority":1,"apply_to_type":1},{"lat":"43.4242462","lng":"-80.4392455","id":2994103,"name":"Bikini Village","address":"Fairview Park ","address2":"2960 Kingsway Drive","country":"Canada","state":"ON","city":"Kitchner","postal":"N2C 1X1","priority":1,"apply_to_type":1},{"lat":"45.4476961","lng":"-73.6155388","id":2994104,"name":"Bikini Village","address":"Carrefour Angrignon","address2":"7077 boul. Newman","country":"Canada","state":"QC","city":"Lasalle","postal":"H8N 1X1","priority":1,"apply_to_type":1},{"lat":"45.5708744","lng":"-73.7518581","id":2994105,"name":"Bikini Village","address":"Carrefour Laval ","address2":"3035 boul. le Carrefour","country":"Canada","state":"QC","city":"Laval","postal":"H7T 1C8","priority":1,"apply_to_type":1},{"lat":"46.796722","lng":"-71.170229","id":2994106,"name":"Bikini Village","address":"Galeries Chagnon ","address2":"1200 boul. Alphonse-Desjardins","country":"Canada","state":"QC","city":"Levis","postal":"G6V 6Y8","priority":1,"apply_to_type":1},{"lat":"43.0189562","lng":"-81.2821647","id":2994107,"name":"Bikini Village","address":"Masonville Place ","address2":"1680 Richmond Street North","country":"Canada","state":"ON","city":"London","postal":"N6G 3Y9","priority":1,"apply_to_type":1},{"lat":"43.8682331","lng":"-79.2883019","id":2994108,"name":"Bikini Village","address":"Markville Shopping Centr","address2":"5000 Highway 7 East","country":"Canada","state":"ON","city":"Markham","postal":"L3R 4M9","priority":1,"apply_to_type":1},{"lat":"43.5930857","lng":"-79.6422752","id":2994109,"name":"Bikini Village","address":"Square One Shopping Centre ","address2":"100 City Centre Drive","country":"Canada","state":"ON","city":"Mississaga","postal":"L5B 2C9","priority":1,"apply_to_type":1},{"lat":"45.5281968","lng":"-73.6481237","id":2994110,"name":"Bikini Village","address":"Centre Rockland","address2":"2305 chemin Rockland","country":"Canada","state":"QC","city":"Montreal","postal":"H3P 3E9","priority":1,"apply_to_type":1},{"lat":"45.50234","lng":"-73.5723531","id":2994111,"name":"Bikini Village","address":"Place Montreal Trust ","address2":"1500 ave. McGill College","country":"Canada","state":"QC","city":"Montreal","postal":"H3A 3J5","priority":1,"apply_to_type":1},{"lat":"45.3472188","lng":"-75.8065663","id":2994112,"name":"Bikini Village","address":"Bayshore Shopping Centre ","address2":"100 Bayshore Drive","country":"Canada","state":"ON","city":"Nepean","postal":"K2B 8C1","priority":1,"apply_to_type":1},{"lat":"44.0563215","lng":"-79.4850721","id":2994113,"name":"Bikini Village","address":"Upper Canada Mall ","address2":"17600 Yonge Street","country":"Canada","state":"ON","city":"Newmarket","postal":"L3Y 4Z1","priority":1,"apply_to_type":1},{"lat":"43.7780055","lng":"-79.3441593","id":2994114,"name":"Bikini Village","address":"Fairview Mall ","address2":"1800 Sheppard Avenue East","country":"Canada","state":"ON","city":"North York","postal":"M2J 5A7","priority":1,"apply_to_type":1},{"lat":"43.461607","lng":"-79.6868686","id":2994115,"name":"Bikini Village","address":"Oakville Place ","address2":"240 Leighland Ave","country":"Canada","state":"ON","city":"Oakville","postal":"L6H 3H6","priority":1,"apply_to_type":1},{"lat":"45.4792927","lng":"-75.5175561","id":2994116,"name":"Bikini Village","address":"Place D'Orleans ","address2":"110 chemin Place d'Orleans","country":"Canada","state":"ON","city":"Orleans","postal":"K1C 2L9","priority":1,"apply_to_type":1},{"lat":"43.8907471","lng":"-78.8800687","id":2994117,"name":"Bikini Village","address":"Oshawa Centre ","address2":"419 King St W","country":"Canada","state":"ON","city":"Oshawa","postal":"L1J 2K5","priority":1,"apply_to_type":1},{"lat":"45.4257665","lng":"-75.692028","id":2994118,"name":"Bikini Village","address":"Rideau Centre","address2":"50 Rideau Street","country":"Canada","state":"ON","city":"Ottawa","postal":"K1N 9J7","priority":1,"apply_to_type":1},{"lat":"45.421652","lng":"-75.6389169","id":2994119,"name":"Bikini Village","address":"St-Laurent Shopping Centre ","address2":"1200 St-Laurent Blvd","country":"Canada","state":"ON","city":"Ottawa","postal":"K1K 3B8","priority":1,"apply_to_type":1},{"lat":"45.464035","lng":"-73.8313502","id":2994120,"name":"Bikini Village","address":"Fairview Pointe-Claire ","address2":"6801 route Transcanadienne","country":"Canada","state":"QC","city":"Pointe-Claire","postal":"H9R 5J2","priority":1,"apply_to_type":1},{"lat":"46.8607756","lng":"-71.2173901","id":2994121,"name":"Bikini Village","address":"Promenades Beauport ","address2":"3333 rue du Carrefour","country":"Canada","state":"QC","city":"Quebec","postal":"G1C 5R9","priority":1,"apply_to_type":1},{"lat":"46.771504","lng":"-71.2815489","id":2994122,"name":"Bikini Village","address":"Place De La Cit√© ","address2":"2600 boul. Laurier","country":"Canada","state":"QC","city":"Quebec","postal":"G1V 4T3","priority":1,"apply_to_type":1},{"lat":"46.830726","lng":"-71.299343","id":2994123,"name":"Bikini Village","address":"Galeries De La Capitale ","address2":"5401 des Galeries","country":"Canada","state":"QC","city":"Quebec","postal":"G2K 1N4","priority":1,"apply_to_type":1},{"lat":"45.74267","lng":"-73.458238","id":2994124,"name":"Bikini Village","address":"Galeries Rive-Nord ","address2":"100 boul. Brien","country":"Canada","state":"QC","city":"Repentigny","postal":"J6A 5N4","priority":1,"apply_to_type":1},{"lat":"49.1672705","lng":"-123.1384481","id":2994125,"name":"Bikini Village","address":"Richmond Centre ","address2":"6551 No.3 Road","country":"Canada","state":"BC","city":"Richmond","postal":"V6Y 2B6","priority":1,"apply_to_type":1},{"lat":"51.2032209","lng":"-113.9930715","id":2994126,"name":"Bikini Village","address":"Crossiron Mills ","address2":"261055 CrossIron blvd.","country":"Canada","state":"AB","city":"Rocky View","postal":"T4A 0G3","priority":1,"apply_to_type":1},{"lat":"45.5053044","lng":"-73.378516","id":2994127,"name":"Bikini Village","address":"Promenades Saint-Bruno ","address2":"281 boul. des Promenades","country":"Canada","state":"QC","city":"Saint-Bruno","postal":"J3V 5K3","priority":1,"apply_to_type":1},{"lat":"45.7941529","lng":"-74.0188684","id":2994128,"name":"Bikini Village","address":"Carrefour Du Nord","address2":"900 boul. Grignon","country":"Canada","state":"QC","city":"Saint-Jerome","postal":"J7Y 3S7","priority":1,"apply_to_type":1},{"lat":"45.8914189","lng":"-74.1475938","id":2994129,"name":"Bikini Village","address":"Factoreries St-Sauveur ","address2":"175 Chemin Jean Adams","country":"Canada","state":"QC","city":"Saint-Sauveur","postal":"J0R 1R6","priority":1,"apply_to_type":1},{"lat":"46.7706734","lng":"-71.2849442","id":2994130,"name":"Bikini Village","address":"Laurier Qu√©Bec ","address2":"2700 boul. Laurier","country":"Canada","state":"QC","city":"Sainte-Foy","postal":"G1V 2L8","priority":1,"apply_to_type":1},{"lat":"45.402295","lng":"-71.9525377","id":2994131,"name":"Bikini Village","address":"Carrefour De L'Estrie ","address2":"3050 boul. de Portland","country":"Canada","state":"QC","city":"Sherbrooke","postal":"J1L 1K1","priority":1,"apply_to_type":1},{"lat":"45.702876","lng":"-73.6467692","id":2994132,"name":"Bikini Village","address":"Galeries De Terrebonne ","address2":"1185 boul. Moody","country":"Canada","state":"QC","city":"Terrebonne","postal":"J6W 3Z5","priority":1,"apply_to_type":1},{"lat":"43.8067096","lng":"-79.4524759","id":2994133,"name":"Bikini Village","address":"Promenade Mall ","address2":"1 Promenade Circle","country":"Canada","state":"ON","city":"Thornhill","postal":"L4J 4P8","priority":1,"apply_to_type":1},{"lat":"43.7254216","lng":"-79.4521064","id":2994134,"name":"Bikini Village","address":"Yorkdale Shopping Centre","address2":"3401 Dufferin Street","country":"Canada","state":"ON","city":"Toronto","postal":"M6A 2T9","priority":1,"apply_to_type":1},{"lat":"43.6544382","lng":"-79.3806994","id":2994135,"name":"Bikini Village","address":"Toronto Eaton Centre ","address2":"220 Yonge Street","country":"Canada","state":"ON","city":"Toronto","postal":"M5B 2H1","priority":1,"apply_to_type":1},{"lat":"49.0371204","lng":"-123.0862544","id":2994136,"name":"Bikini Village","address":"Tsawwassen Mills ","address2":"5000 Canoe Pass Way","country":"Canada","state":"BC","city":"Tsawwassen","postal":"V4M 0B3","priority":1,"apply_to_type":1},{"lat":"45.4127569","lng":"-74.0386111","id":2994137,"name":"Bikini Village","address":"Les Avenues Vaudreuil ","address2":"3220 boul. de la Gare","country":"Canada","state":"QC","city":"Vaudreuil-Dorion","postal":"J7V 8W5","priority":1,"apply_to_type":1},{"lat":"43.825305","lng":"-79.5391196","id":2994138,"name":"Bikini Village","address":"Vaughan Mills Mall ","address2":"1 Bass Pro Mills Drive","country":"Canada","state":"ON","city":"Vaughan","postal":"L4K 5W4","priority":1,"apply_to_type":1},{"lat":"43.4977058","lng":"-80.5269851","id":2994139,"name":"Bikini Village","address":"Conestoga Mall ","address2":"550 King St. N","country":"Canada","state":"ON","city":"Waterloo","postal":"N2L 5W6","priority":1,"apply_to_type":1},{"lat":"42.2751675","lng":"-83.0018835","id":2994140,"name":"Bikini Village","address":"Devonshire Mall ","address2":"3100 Howard Avenue","country":"Canada","state":"ON","city":"Windsor","postal":"N8X 3Y8","priority":1,"apply_to_type":1},{"lat":"49.8866486","lng":"-97.1992166","id":2994141,"name":"Bikini Village","address":"Polo Park ","address2":"1485 Portage Avenue","country":"Canada","state":"MB","city":"Winnipeg","postal":"R3G 0W4","priority":1,"apply_to_type":1},{"lat":"24.5571251","lng":"-81.8040958","id":2994142,"name":"Bikini Village Of (Kw)","address":"326 B Duval St.","country":"USA","state":"FL","city":"Key West","postal":"33040","priority":1,"apply_to_type":1},{"lat":"18.148523","lng":"-65.441962","id":2994143,"name":"Black Beard Sports Inc.","address":"101 Calle Munoz Rivera St","country":"USA","state":"PR","city":"Vieques","postal":"765","priority":1,"apply_to_type":1},{"lat":"29.9858028","lng":"-98.1128222","id":2994144,"name":"Blanco River Outfitters","address":"333 Wayside Drive","country":"USA","state":"TX","city":"Wimberley","postal":"78676","priority":1,"apply_to_type":1},{"lat":"25.859393","lng":"-80.120602","id":2994145,"name":"Bliss Of Miami, Llc","address":"7341 Collins Ave","country":"USA","state":"FL","city":"Miami Beach","postal":"33141","priority":1,"apply_to_type":1},{"lat":"44.506717","lng":"-80.3184817","id":2994146,"name":"Blue Mountain Village Assoc.","address":"108 Jozo Weider Blvd","country":"Canada","state":"ON","city":"Blue Mountains","postal":"L9Y 3Z2","priority":1,"apply_to_type":1},{"lat":"39.111761","lng":"-119.776632","id":2994147,"name":"Blue Zone Sports","address":"3790 US-395 #402","country":"USA","state":"NV","city":"Carson City","postal":"89705","priority":1,"apply_to_type":1},{"lat":"38.914654","lng":"-120.004602","id":2994148,"name":"Blue Zone Sports","address":"2011 Lake Tahoe Blvd","country":"USA","state":"CA","city":"South Lake Tahoe","postal":"96150","priority":1,"apply_to_type":1},{"lat":"39.318798","lng":"-120.2089383","id":2994149,"name":"Blue Zone Sports","address":"11391 Deerfield Drive","country":"USA","state":"CA","city":"Truckee","postal":"96161","priority":1,"apply_to_type":1},{"lat":"40.180217","lng":"-111.647357","id":2994150,"name":"Boardco","address":"1015 North 2000 West","country":"USA","state":"UT","city":"Springville","postal":"84663","priority":1,"apply_to_type":1},{"lat":"29.7697545","lng":"-98.0406393","id":2994151,"name":"Boardco Texas","address":"6700 Ih 35","country":"USA","state":"TX","city":"New Braunfels","postal":"78130","priority":1,"apply_to_type":1},{"lat":"45.5708744","lng":"-73.7518581","id":2994152,"name":"Body & Beach","address":"Cf Carrefour Laval ","address2":"3035 boulevard le Carrefour","country":"Canada","state":"QC","city":"Laval","postal":"H7T 1C8","priority":1,"apply_to_type":1},{"lat":"45.6006305","lng":"-73.564644","id":2994153,"name":"Body & Beach","address":"Galeries D'Anjou ","address2":"7999 boulevard des Galeries d'Anjou","country":"Canada","state":"QC","city":"Montreal","postal":"H1M 1W9","priority":1,"apply_to_type":1},{"lat":"45.6296771","lng":"-73.8204887","id":2994154,"name":"Body & Beach","address":"Place Rosem√®Re","address2":"401 boulevard Labelle","country":"Canada","state":"QC","city":"Rosem√®Re","postal":"J7A3T2","priority":1,"apply_to_type":1},{"lat":"45.5053044","lng":"-73.378516","id":2994155,"name":"Body & Beach","address":"Cf Promenades St-Bruno ","address2":" 1 boulevard des Promenades","country":"Canada","state":"QC","city":"Saint-Bruno-De-Montarville","postal":"J3V 5J5","priority":1,"apply_to_type":1},{"lat":"46.7706734","lng":"-71.2849442","id":2994156,"name":"Body & Beach","address":"Laurier Qu√©Bec ","address2":"2700 boulevard Laurier","country":"Canada","state":"QC","city":"St-Foy","postal":"G1V 2L8","priority":1,"apply_to_type":1},{"lat":"45.702876","lng":"-73.6467692","id":2994157,"name":"Body & Beach","address":"Galeries Terrebonne","address2":"1185 boulevard Moody","country":"Canada","state":"QC","city":"Terrerbonne","postal":"J6W 3Z5","priority":1,"apply_to_type":1},{"lat":"46.3565331","lng":"-72.58904","id":2994158,"name":"Body & Beach","address":"Centre Les Rivi√®Res","address2":"4225 boulevard des Forges","country":"Canada","state":"QC","city":"Trois-Rivi√®Res","postal":"G8Y1W2","priority":1,"apply_to_type":1},{"lat":"45.4441226","lng":"-73.4377594","id":2994159,"name":"Body & Beach - Mi","address":"Quartier Dix30 ","address2":"9140 boulevard Leduc","country":"Canada","state":"QC","city":"Brossard","postal":"J4Y 0L2","priority":1,"apply_to_type":1},{"lat":"50.397329","lng":"-105.534487","id":2994160,"name":"Boh S Cycle & Sporting Goods","address":"821 Main St. North","country":"Canada","state":"SK","city":"Moose Jaw","postal":"S6H 0W8","priority":1,"apply_to_type":1},{"lat":"34.4737605","lng":"-114.3472173","id":2994161,"name":"Bombora Beachwear","address":"105 English Village","country":"USA","state":"AZ","city":"Lake Havasu","postal":"86403","priority":1,"apply_to_type":1},{"lat":"45.8819574","lng":"-72.4865585","id":2994162,"name":"Boutique Du Danseur Et","address":"285 Lindsay","country":"Canada","state":"QC","city":"Drummondville","postal":"J2B 1G2","priority":1,"apply_to_type":1},{"lat":"45.4804962","lng":"-73.4466387","id":2994163,"name":"Boutique Le Prince Inc.","address":"5355 Montee St-Hubert","country":"Canada","state":"QC","city":"St-Hubert","postal":"J3Y 1W1","priority":1,"apply_to_type":1},{"lat":"46.7230489","lng":"-72.5939042","id":2994164,"name":"Boutique Melany","address":"645 Rang Rivard","country":"Canada","state":"QC","city":"St-Tite","postal":"G0X 3H0","priority":1,"apply_to_type":1},{"lat":"41.9389025","lng":"-87.6677908","id":2994165,"name":"Bras Galore","address":"3148 N. Lincoln Ave","country":"USA","state":"IL","city":"Chicago","postal":"60657","priority":1,"apply_to_type":1},{"lat":"40.598919","lng":"-73.957792","id":2994166,"name":"California Beach","address":"1313 Avenue U","country":"USA","state":"NY","city":"Brooklyn","postal":"11229","priority":1,"apply_to_type":1},{"lat":"38.2056633","lng":"-92.7488173","id":2994167,"name":"Camden On The Lake Resort","address":"2359 Bittersweet Rd","country":"USA","state":"MO","city":"Lake Ozark","postal":"65049","priority":1,"apply_to_type":1},{"lat":"40.0230237","lng":"-75.3151772","id":2994168,"name":"Cameo Water Wear","address":"Bryn Mawr Village ","address2":"925W Lancaster Ave","country":"USA","state":"PA","city":"Bryn Mawr","postal":"19010","priority":1,"apply_to_type":1},{"lat":"39.8645155","lng":"-75.5435918","id":2994169,"name":"Cameo Water Wear","address":"Glen Eagle Square ","address2":"533 Wilmongton W. Chester Pike","country":"USA","state":"PA","city":"Glen Mills","postal":"19342","priority":1,"apply_to_type":1},{"lat":"40.0903341","lng":"-75.1243457","id":2994170,"name":"Cameo Water Wear","address":"261 Old York Road","country":"USA","state":"PA","city":"Jenkintown","postal":"19046","priority":1,"apply_to_type":1},{"lat":"40.7330975","lng":"-74.0462608","id":2994171,"name":"Cameo Water Wear","address":"301 16Th Street","country":"USA","state":"NJ","city":"Jersey City","postal":"7310","priority":1,"apply_to_type":1},{"lat":"40.7330975","lng":"-74.0462608","id":2994172,"name":"Cameo Water Wear","address":"301 16Th Street","country":"USA","state":"NJ","city":"Jersey City","postal":"7310","priority":1,"apply_to_type":1},{"lat":"40.7330975","lng":"-74.0462608","id":2994173,"name":"Cameo Water Wear","address":"301 16Th Street","country":"USA","state":"NJ","city":"Jersey City","postal":"7310","priority":1,"apply_to_type":1},{"lat":"40.7330975","lng":"-74.0462608","id":2994174,"name":"Cameo Water Wear","address":"301 16 Th Street","country":"USA","state":"NJ","city":"Jersey City","postal":"7310","priority":1,"apply_to_type":1},{"lat":"39.8891641","lng":"-74.9263733","id":2994175,"name":"Cameo Water Wear","address":"Marlton Crossing ","address2":" 123 Rt 73 South","country":"USA","state":"NJ","city":"Marlton","postal":"8053","priority":1,"apply_to_type":1},{"lat":"39.8912911","lng":"-74.9281506","id":2994176,"name":"Cameo Water Wear","address":"123 Rt 73 South","country":"USA","state":"NJ","city":"Marlton","postal":"8053","priority":1,"apply_to_type":1},{"lat":"39.8912911","lng":"-74.9281506","id":2994177,"name":"Cameo Water Wear","address":"123 Rt 73 South","country":"USA","state":"NJ","city":"Marlton","postal":"8053","priority":1,"apply_to_type":1},{"lat":"39.9515705","lng":"-75.1680038","id":2994178,"name":"Cameo Water Wear","address":"1625 Chestnut Street Space 124","country":"USA","state":"PA","city":"Philadelphia","postal":"19103","priority":1,"apply_to_type":1},{"lat":"34.0313849","lng":"-77.8947378","id":2994179,"name":"Cb Surf Shop Corp.","address":"209 S. Lake Park Blvd.","country":"USA","state":"NC","city":"Carolina Beach","postal":"28428","priority":1,"apply_to_type":1},{"lat":"49.032623","lng":"-119.464645","id":2994180,"name":"Cheeks Beachwear Ltd","address":"8317 Main St.","country":"Canada","state":"BC","city":"Osoyoos","postal":"V0H 1V3","priority":1,"apply_to_type":1},{"lat":"34.4685531","lng":"-114.3425696","id":2994181,"name":"Beachcombers","address":"181 Swanson","country":"USA","state":"AZ","city":"Lake Havasu","postal":"86403","priority":1,"apply_to_type":1},{"lat":"33.6913965","lng":"-78.921708","id":2994182,"name":"Cherry Lake Ii","address":"1421 Dividend Loop","country":"USA","state":"SC","city":"Myrtle Beach","postal":"29577","priority":1,"apply_to_type":1},{"lat":"33.1585975","lng":"-117.3515181","id":2994183,"name":"Cindy's Swimwear L.P.","address":"2965 Carlsbad Blvd","country":"USA","state":"CA","city":"Carlsbad","postal":"92008","priority":1,"apply_to_type":1},{"lat":"50.6582945","lng":"-99.9685737","id":2994184,"name":"Clear Lake Trading Post","address":"144 Wasagaming Drive","country":"Canada","state":"MB","city":"Onanole","postal":"R0J 1N0","priority":1,"apply_to_type":1},{"lat":"18.4286115","lng":"-64.6184657","id":2994185,"name":"Coconut Sun, Ltd - Arawak","address":"3009 Road Town","state":"BVI","city":"Tortola, Bvi","postal":"VG1110","priority":1,"apply_to_type":1},{"lat":"40.0157344","lng":"-105.2613434","id":2994187,"name":"Colorado Swim Shop, Llc ","address":"2525 Arapahoe Ave","country":"USA","state":"CO","city":"Boulder","postal":"80302","priority":1,"apply_to_type":1},{"lat":"22.8869593","lng":"-109.9091215","id":2994188,"name":"Comercializadora Koosta S.A.\/De C.V. Azul Swimwear","address":"Centro Comercial Puertoparaiso","country":"USA","state":"23410","city":"Mexico","postal":"23410","priority":1,"apply_to_type":1},{"lat":"46.058055","lng":"-70.5387812","id":2994189,"name":"Confection Simonne Inc.","address":"12475 1E Avenue","country":"Canada","state":"QC","city":"Saint Georges","postal":"G5Y 2E3","priority":1,"apply_to_type":1},{"lat":"36.9633303","lng":"-122.0238455","id":2994190,"name":"Cowell S Beach N Bikini","address":"30 Front Street","country":"USA","state":"CA","city":"Santa Cruz","postal":"95060","priority":1,"apply_to_type":1},{"lat":"46.090169","lng":"-71.301488","id":2994191,"name":"Creations Micheline Leblond","address":"63 Notre-Dame Ouest","country":"Canada","state":"QC","city":"Thetford Mines","postal":"G6G 1J4","priority":1,"apply_to_type":1},{"lat":"49.8861834","lng":"-119.4922817","id":2994192,"name":"Cruzwear Unlimited","address":"539 Bernard Ave.","country":"Canada","state":"BC","city":"Kelowna","postal":"V1Y 6N9","priority":1,"apply_to_type":1},{"lat":"42.7865225","lng":"-80.2032779","id":2994193,"name":"Dave's World Inc.","address":"7 Main Street Box 999","country":"Canada","state":"ON","city":"Port Dover","postal":"N0A 1N0","priority":1,"apply_to_type":1},{"lat":"12.5192964","lng":"-70.0388323","id":2994194,"name":"De Palm Corporation","address":"L. G. Smith Blvd. 142","country":"Aruba","city":"Oranjestad","priority":1,"apply_to_type":1},{"lat":"40.0948197","lng":"-74.0364863","id":2994195,"name":"Deep Blue Boutique Inc.","address":"300 Ocean Ave","country":"USA","state":"NJ","city":"Point Pleasant Beach","postal":"8742","priority":1,"apply_to_type":1},{"lat":"34.5964433","lng":"-120.1380902","id":2994196,"name":"Design Alternatives","address":"1693 Mission Drive Unit 1","country":"USA","state":"CA","city":"Solvang","postal":"93463","priority":1,"apply_to_type":1},{"lat":"33.6575666","lng":"-118.0012938","id":2994197,"name":"Diane's Bikinis","phone":"(714) 536-0048","address":"116 Main Street","country":"USA","state":"CA","city":"Huntington Beach","postal":"92648","priority":1,"apply_to_type":1},{"lat":"14.5796459","lng":"-90.4952186","id":2994211,"name":"Dk's Style Hut Keys Inc","address":"20 Calle Cc La Pradera 25-85","country":"Guatemala","city":"Guatemala","postal":"1010","priority":1,"apply_to_type":1},{"lat":"28.4582151","lng":"-81.4401733","id":2994212,"name":"Elan Sunwear Inc.","address":"7507 Kingspointe Pkwy Ste 106A","country":"USA","state":"FL","city":"Orlando","postal":"32819","priority":1,"apply_to_type":1},{"lat":"45.962476","lng":"-66.6438644","id":2994213,"name":"Elle Mio Lingerie Boutique Inc","address":"85 York Street","country":"Canada","state":"NB","city":"Fredericton","postal":"E3B 3N4","priority":1,"apply_to_type":1},{"lat":"46.0887557","lng":"-64.7772762","id":2994214,"name":"Elle Mio Lingerie Btq.","address":"735 Main Street Suite 102","country":"Canada","state":"NB","city":"Moncton","postal":"E1C 1E5","priority":1,"apply_to_type":1},{"lat":"41.2828178","lng":"-70.0975537","id":2994215,"name":"Force 5 Watersports Inc.","address":"6 Union St.","country":"USA","state":"MA","city":"Nantucket","postal":"2554","priority":1,"apply_to_type":1},{"lat":"44.300828","lng":"-79.6067803","id":2994216,"name":"Friday Harbour Resort Holdings","address":"2101 Innisfil Beach Road","country":"Canada","state":"ON","city":"Innisfil","postal":"L9S 1A1","priority":1,"apply_to_type":1},{"lat":"33.6913965","lng":"-78.921708","id":2994217,"name":"Fun Jewelry Inc","address":"1421 Dividend Loop","country":"USA","state":"SC","city":"Myrtle Beach","postal":"29577","priority":1,"apply_to_type":1},{"lat":"49.6991333","lng":"-123.1533013","id":2994218,"name":"Funky Monkey Boutique","address":"Box 306 38041 Cleveland Ave","country":"Canada","state":"BC","city":"Squamish","postal":"V8B 0A3","priority":1,"apply_to_type":1},{"lat":"45.4051521","lng":"-71.9577909","id":2994219,"name":"Gestion Michel Poisson Inc\/Momo Sport","address":"530 Jean Paul Perrault","country":"Canada","state":"QC","city":"Sherbrooke","postal":"J1L 3A6","priority":1,"apply_to_type":1},{"lat":"39.5495035","lng":"-107.3232903","id":2994220,"name":"Glenwood Hot Springs Spa","address":"401 North River Street","country":"USA","state":"CO","city":"Glenwood Springs","postal":"81601","priority":1,"apply_to_type":1},{"lat":"46.115018","lng":"-89.830617","id":2994221,"name":"Greer's Pier Marina ","address":"5536 Us-51","country":"USA","state":"WI","city":"Manitowish Waters","postal":"54545","priority":1,"apply_to_type":1},{"lat":"34.440133","lng":"-93.0880943","id":2994222,"name":"Gregg Orr Marine","address":"4903 Central Avenue","country":"USA","state":"AR","city":"Hot Springs","postal":"71913","priority":1,"apply_to_type":1},{"lat":"25.8500793","lng":"-80.1205037","id":2994223,"name":"Halo Of Miami Inc.","address":"6618 Collins Ave","country":"USA","state":"FL","city":"Miami Beach","postal":"33141","priority":1,"apply_to_type":1},{"lat":"38.385162","lng":"-75.152716","id":2994224,"name":"Holiday Swimwear Inc.","address":"2 Tail Of The Fox","country":"USA","state":"MD","city":"Berlin","postal":"21811","priority":1,"apply_to_type":1},{"lat":"30.5470142","lng":"-98.3600176","id":2994225,"name":"Horseshoe Bay Resort","address":"200 Hi Circle North","country":"USA","state":"TX","city":"Horseshoe Bay","postal":"78657","priority":1,"apply_to_type":1},{"lat":"25.8489754","lng":"-80.1207437","id":2994226,"name":"I Love Miami, Llc","address":"6550 Collins Ave","country":"USA","state":"FL","city":"Miami Beach","postal":"33141","priority":1,"apply_to_type":1},{"lat":"25.752268","lng":"-80.232424","id":2994227,"name":"In Limbo","address":"2305 Sw 21St Street","country":"USA","state":"FL","city":"Miami","postal":"33145","priority":1,"apply_to_type":1},{"lat":"46.2350148","lng":"-63.1278335","id":2994228,"name":"Island Beach Company Clothing","address":"111 Grafton St.","country":"Canada","state":"PE","city":"Charlottetown","postal":"C1A 1K9","priority":1,"apply_to_type":1},{"lat":"26.0900099","lng":"-97.1638325","id":2994229,"name":"Island Native Surfhouse","address":"700 Padre Blvd","country":"USA","state":"TX","city":"South Padre Island ","postal":"78597","priority":1,"apply_to_type":1},{"lat":"27.8281005","lng":"-97.0663047","id":2994230,"name":"Island Sports","address":"115 E Ave G","country":"USA","state":"TX","city":"Port Aransas","postal":"78373","priority":1,"apply_to_type":1},{"lat":"33.925583","lng":"-78.272071","id":2994231,"name":"Islander Surf And Resortwear","address":"3271 Holden Beach Rd.","country":"USA","state":"NC","city":"Holden Beach","postal":"28462","priority":1,"apply_to_type":1},{"lat":"47.6749696","lng":"-68.8799661","id":2994232,"name":"J.A. St-Pierre Et Fils Inc.","address":"70 Boul. Phil-Latulippe","country":"Canada","state":"QC","city":"Temiscouata-Sur-Le-Lac","postal":"G0L 1E0","priority":1,"apply_to_type":1},{"lat":"30.3243836","lng":"-81.3968588","id":2994233,"name":"Jacksonville Surf & Paddle,Llc","address":"241 Atlantic Blvd #102","country":"USA","state":"FL","city":"Neptune Beach","postal":"32266","priority":1,"apply_to_type":1},{"lat":"39.5718968","lng":"-74.2342524","id":2994234,"name":"Jwt Stores\/Beach Haven","address":"1400 N. Bay Ave","country":"USA","state":"NJ","city":"Beach Haven","postal":"8008","priority":1,"apply_to_type":1},{"lat":"39.5724201","lng":"-74.2341413","id":2994235,"name":"Jwt Stores\/Beach Haven","address":"1310 Long Beach Blvd","country":"USA","state":"NJ","city":"Beach Haven","postal":"8008","priority":1,"apply_to_type":1},{"lat":"44.2365612","lng":"-76.5703183","id":2994236,"name":"Kahiko Bay","address":"506 Days Road Unit E F","country":"Canada","state":"ON","city":"Kingston","postal":"K7M 5R4","priority":1,"apply_to_type":1},{"lat":"36.0939737","lng":"-115.173036","id":2994237,"name":"Kine Llc Dba Ron Jon Las Vegas\/The Shoppes At Mandalay Place","address":"3930 Las Vegas Blvd S. Ste 130","country":"USA","state":"NV","city":"Las Vegas","postal":"89119","priority":1,"apply_to_type":1},{"lat":"-17.5328608","lng":"-149.5560036","id":2994238,"name":"Kokai Varua Crewz","address":"17 Cours De L'Union Sacree","country":"Tahiti","city":"Polynesie Francaise","postal":"98713","priority":1,"apply_to_type":1},{"lat":"36.6431158","lng":"-93.2143959","id":2994239,"name":"Lake Life Resort Wear","address":"219 Branson Landing Blvd","country":"USA","state":"MO","city":"Branson","postal":"65616","priority":1,"apply_to_type":1},{"lat":"50.2567357","lng":"-96.0584615","id":2994240,"name":"Laverendrye Trading Co. Ltd","address":"46 Park Avenue","country":"Canada","state":"MB","city":"Lac Du Bonnet","postal":"R0E 1A0","priority":1,"apply_to_type":1},{"lat":"45.3179215","lng":"-73.2637543","id":2994241,"name":"Le Salon Du Corset(2004)Nm Inc","address":"557 Blvd Du Seminaire","country":"Canada","state":"QC","city":"St-Jean Sur Richelieu","postal":"J3B 7C9","priority":1,"apply_to_type":1},{"lat":"45.2645409","lng":"-74.1335553","id":2994242,"name":"Les Douceurs De Stephanie","address":"116 Grande Ile","country":"Canada","state":"QC","city":"Valleyfield","postal":"J6S 3M6","priority":1,"apply_to_type":1},{"lat":"45.5071457","lng":"-73.5637082","id":2994243,"name":"Lilianne","address":"Complexe Desjardins ","address2":"150 rue Sainte-Catherine Ouest","country":"Canada","state":"QC","city":"Montreal","postal":"H2X 3Y2","priority":1,"apply_to_type":1},{"lat":"45.74267","lng":"-73.458238","id":2994244,"name":"Lilianne ","address":"Les Galeries Rive Nord ","address2":"100 boulevard Brien ","country":"Canada","state":"QC","city":"Repentigny","postal":"J6A5N4","priority":1,"apply_to_type":1},{"lat":"45.4757747","lng":"-75.6971892","id":2994245,"name":"Lilianne \/ Body & Beach","address":"Promenades Gatineau ","address2":"1100 boulevard Maloney Ouest","country":"Canada","state":"QC","city":"Gatineau","postal":"J8T 6G3","priority":1,"apply_to_type":1},{"lat":"45.591415","lng":"-73.540527","id":2994246,"name":"Lingerie Bri¬Ère","address":"Place Versailles ","address2":"7275 Sherbrooke Est","country":"Canada","state":"QC","city":"Montreal","postal":"H1N 1E9","priority":1,"apply_to_type":1},{"lat":"45.6445276","lng":"-72.5730342","id":2994247,"name":"Lingerie Choiniere","address":"1390 Rue D'Acton","country":"Canada","state":"QC","city":"Acton Vale","postal":"J0H 1A0","priority":1,"apply_to_type":1},{"lat":"46.5522503","lng":"-75.4975641","id":2994248,"name":"Lingerie Vanessa","address":"532 De La Madone","country":"Canada","state":"QC","city":"Mont Laurier","postal":"J9L 1S5","priority":1,"apply_to_type":1},{"lat":"37.9869865","lng":"-122.5898084","id":2994249,"name":"Live Water Surf Shop","address":"69 Broadway Blvd","country":"USA","state":"CA","city":"Fairfax","postal":"94930","priority":1,"apply_to_type":1},{"lat":"32.8427766","lng":"-117.2736279","id":2994250,"name":"La Jolla Swim and Sport","address":"7644-1 Girard Ave","country":"USA","state":"CA","city":"La Jolla","postal":"92037","priority":1,"apply_to_type":1},{"lat":"26.8948775","lng":"-80.0618088","id":2994251,"name":"Locals Surf Shop","address":"4050 Us Hwy 1 Ste 304","country":"USA","state":"FL","city":"Jupiter","postal":"33477","priority":1,"apply_to_type":1},{"lat":"34.4711999","lng":"-114.3455641","id":2994252,"name":"Bombora Beachwear","address":"105 English Village","country":"USA","state":"AZ","city":"Lake Havasu","postal":"86403","priority":1,"apply_to_type":1},{"lat":"33.0099817","lng":"-96.7097412","id":2994253,"name":"Loretta's Intimates","address":"721 N. Central Expwy Ste 414","country":"USA","state":"TX","city":"Plano","postal":"75075","priority":1,"apply_to_type":1},{"lat":"41.6527498","lng":"-82.8182379","id":2994254,"name":"Lovella Fashion Apparel","address":"258 Delaware Ave","country":"USA","state":"OH","city":"Put-In-Bay","postal":"43456","priority":1,"apply_to_type":1},{"lat":"42.4158324","lng":"-90.4293287","id":2994255,"name":"Lulu'S","address":"127 S. Main Street","country":"USA","state":"IL","city":"Galena","postal":"61036","priority":1,"apply_to_type":1},{"lat":"46.051574","lng":"-72.003789","id":2994256,"name":"Maheu Magasin - Dm2 Shop","address":"1337 Notre Dame Ouest","country":"Canada","state":"QC","city":"Victoriaville","postal":"G6P 7L5","priority":1,"apply_to_type":1},{"lat":"28.3185241","lng":"-80.6088068","id":2994257,"name":"Marchiquita","address":"1 North Atlantic Ave","country":"USA","state":"FL","city":"Cocoa Beach","postal":"32931","priority":1,"apply_to_type":1},{"lat":"25.8687877","lng":"-80.3763175","id":2994258,"name":"Marco Destin Inc.","address":"10800 Nw 106Th Street Suite 6","country":"USA","state":"FL","city":"Miami","postal":"33178","priority":1,"apply_to_type":1},{"lat":"33.6913965","lng":"-78.921708","id":2994259,"name":"Mega Tsunami","address":"1421 Dividend Loop","country":"USA","state":"SC","city":"Myrtle Beach","postal":"29577","priority":1,"apply_to_type":1},{"lat":"26.2316572","lng":"-80.0907249","id":2994260,"name":"Miami Blues Inc.","address":"3400 E Atlantic Blvd.","country":"USA","state":"FL","city":"Pompano Beach","postal":"33062","priority":1,"apply_to_type":1},{"lat":"25.8565246","lng":"-80.1206882","id":2994261,"name":"Milan Shoes Of Miami, Llc","address":"7116 Collins Ave","country":"USA","state":"FL","city":"Miami Beach","postal":"33141","priority":1,"apply_to_type":1},{"lat":"45.6385298","lng":"-72.9648864","id":2994262,"name":"Mon Bikini Ma Brosse A Dent","address":"3200 Laframboise Blvd.","country":"Canada","state":"QC","city":"St-Hyacinthe","postal":"J2S 4Z5","priority":1,"apply_to_type":1},{"lat":"41.4563875","lng":"-70.5580646","id":2994263,"name":"Mv Investments, Llc","address":"Slip 77 - 28 Lake Avenue","country":"USA","state":"MA","city":"Oak Bluffs","postal":"2557","priority":1,"apply_to_type":1},{"lat":"41.4563875","lng":"-70.5580646","id":2994264,"name":"Mv Investments, Llc","address":"Slip 77 - 19 Circuit Ave","country":"USA","state":"MA","city":"Oak Bluffs","postal":"2557","priority":1,"apply_to_type":1},{"lat":"27.6518262","lng":"-80.3564608","id":2994265,"name":"Nancy's Twig Swim Shop Inc.","address":"3213 Ocean Dr.","country":"USA","state":"FL","city":"Vero Beach","postal":"32963","priority":1,"apply_to_type":1},{"lat":"35.2457204","lng":"-95.4887679","id":2994266,"name":"No 9 Marina","address":"575 Number 9 Marina Road","country":"USA","state":"OK","city":"Eufaula","postal":"74432","priority":1,"apply_to_type":1},{"lat":"36.9731456","lng":"-121.9514576","id":2994267,"name":"Nubia Swimwear","address":"202 Capitola Ave","country":"USA","state":"CA","city":"Capitola","postal":"95010","priority":1,"apply_to_type":1},{"lat":"26.1167453","lng":"-97.170019","id":2994268,"name":"Ocean Motion","address":"4309 Padre Blvd","country":"USA","state":"TX","city":"South Padre Island","postal":"78597","priority":1,"apply_to_type":1},{"lat":"29.2863524","lng":"-94.794102","id":2994269,"name":"Ohana Surf And Skate","address":"2814 Ave R 1\/2 ","country":"USA","state":"TX","city":"Galveston","postal":"77550","priority":1,"apply_to_type":1},{"lat":"26.0998688","lng":"-97.1668626","id":2994270,"name":"On The Beach","address":"2105 Padre Blvd.","country":"USA","state":"TX","city":"South Padre Island","postal":"78597","priority":1,"apply_to_type":1},{"lat":"36.6145546","lng":"-121.9027642","id":2994271,"name":"On The Beach Surf Shop","address":"693 Lighthouse Ave.","country":"USA","state":"CA","city":"Monterey","postal":"93940","priority":1,"apply_to_type":1},{"lat":"20.8912757","lng":"-156.4607241","id":2994272,"name":"Ozee Enterprises - Second Wind","address":"111 Hana Hwy Ste# 110","country":"USA","state":"HI","city":"Kahului","postal":"96732","priority":1,"apply_to_type":1},{"lat":"27.618863","lng":"-97.2208786","id":2994273,"name":"Padre Islander","address":"14514 S Padre Island Dr","country":"USA","state":"TX","city":"Corpus Christi","postal":"78418","priority":1,"apply_to_type":1},{"lat":"42.0036802","lng":"-84.2836941","id":2994274,"name":"Paula's Poop Deck","address":"5856 Darby Ct","country":"USA","state":"MI","city":"Manitou Beach","postal":"49253","priority":1,"apply_to_type":1},{"lat":"10.6234172","lng":"-61.2875828","id":2994275,"name":"Peeping Fish - Kellie Harris","address":"21B Leotaud Lands","country":"Trinidad","city":"Arima, West Indies","priority":1,"apply_to_type":1},{"lat":"34.7274369","lng":"-114.510872","id":2994276,"name":"Pirates Cove Resort and Marina","address":"100 Park Moabi Rd","country":"USA","state":"CA","city":"Needles","postal":"92363","priority":1,"apply_to_type":1},{"lat":"50.333981","lng":"-115.84621","id":2994277,"name":"Poolside Fairmont Hot Springs Resort","address":"5237 Fairmont Resort Road","country":"Canada","state":"BC","city":"Fairmont Hot Springs","postal":"V0B 1L1","priority":1,"apply_to_type":1},{"lat":"45.5254039","lng":"-122.6820266","id":2994278,"name":"Popina Swimwear Pearl","address":"318 Nw 11Th Ave","country":"USA","state":"OR","city":"Portland","postal":"97209","priority":1,"apply_to_type":1},{"lat":"45.537501","lng":"-122.6195608","id":2994279,"name":"Poppi Swim & Sport, Inc","address":"2030 NE 42nd Ave","country":"USA","state":"OR","city":"Portland","postal":"97213","priority":1,"apply_to_type":1},{"lat":"41.7957966","lng":"-69.9826494","id":2994280,"name":"Pump House Surf Co. Inc.","address":"9 Cranberry Highway","country":"USA","state":"MA","city":"Orleans","postal":"2653","priority":1,"apply_to_type":1},{"lat":"41.7963775","lng":"-69.9831111","id":2994281,"name":"Pump House Surf Co. Inc.","address":"6 Route 6A","country":"USA","state":"MA","city":"Orleans","postal":"2653","priority":1,"apply_to_type":1},{"lat":"43.1162719","lng":"-79.0710375","id":2994282,"name":"Ripley 's Niagara Water Park","address":"3950 Victoria Ave.","country":"Canada","state":"ON","city":"Niagara Falls","postal":"L2E 7M8","priority":1,"apply_to_type":1},{"lat":"50.4950969","lng":"-104.6115264","id":2994283,"name":"Rudy S Regina Beach","address":"15 Gandhi Bay","country":"Canada","state":"SK","city":"Regina","postal":"S4R 7K9","priority":1,"apply_to_type":1},{"lat":"48.4283836","lng":"-89.2325461","id":2994284,"name":"Sand N Sea - Thunder Bay","address":"273 Algoma St. S.","country":"Canada","state":"ON","city":"Thunder Bay","postal":"P7B 3C3","priority":1,"apply_to_type":1},{"lat":"25.1245491","lng":"-80.4127868","id":2994285,"name":"Sandal Factory Outlet Inc","address":"102411 Overseas Highway","country":"USA","state":"FL","city":"Key Largo","postal":"33037","priority":1,"apply_to_type":1},{"lat":"31.7420096","lng":"-99.312449","id":2994286,"name":"Santa Anna Store","address":"204 Wallis Ave","country":"USA","state":"TX","city":"Santa Anna","postal":"76878","priority":1,"apply_to_type":1},{"lat":"43.7439132","lng":"-81.710578","id":2994287,"name":"Schaefers Ladies Wear Ltd.","address":"162 Courthouse Square","country":"Canada","state":"ON","city":"Goderich","postal":"N7A 1N1","priority":1,"apply_to_type":1},{"lat":"47.5245488","lng":"-64.9108375","id":2994288,"name":"Seduction Mode Enr","address":"339-3 Ave Du Moulin","country":"Canada","state":"NB","city":"Tracadie-Sheila","postal":"E1X 1A4","priority":1,"apply_to_type":1},{"lat":"49.6889991","lng":"-83.6633267","id":2994289,"name":"Sensations","address":"810 Georges","country":"Canada","state":"ON","city":"Hearst","postal":"P0L 1N0","priority":1,"apply_to_type":1},{"lat":"24.5501816","lng":"-81.7988213","id":2994290,"name":"Shaddow And Fish Inc.","address":"1024 Duval St.","country":"USA","state":"FL","city":"Key West","postal":"33040","priority":1,"apply_to_type":1},{"lat":"51.0034319","lng":"-114.0664492","id":2994291,"name":"Shapes N Figures","address":"103-5718 1A St. Sw","country":"Canada","state":"AB","city":"Calgary","postal":"T2H 0E8","priority":1,"apply_to_type":1},{"lat":"34.0184388","lng":"-94.7385056","id":2994292,"name":"Sharpe's Department Store ","address":"805 S Park Dr","country":"USA","state":"OK","city":"Broken Bow","postal":"74728","priority":1,"apply_to_type":1},{"lat":"25.8558769","lng":"-80.1206928","id":2994293,"name":"Sie, Llc Dba 7-Six","address":"200 71St Street","country":"USA","state":"FL","city":"Miami Beach","postal":"33141","priority":1,"apply_to_type":1},{"lat":"49.8459113","lng":"-124.5207716","id":2994295,"name":"Simply Bronze","address":"216-6975 Alberni St","country":"Canada","state":"BC","city":"Powell River","postal":"V8A 2B8","priority":1,"apply_to_type":1},{"lat":"45.303923","lng":"-72.638739","id":2994296,"name":"Ski Bromont,Com S.E.C.","address":"150 Rue Champlain","country":"Canada","state":"QC","city":"Bromont","postal":"J2L 1A2","priority":1,"apply_to_type":1},{"lat":"35.2797124","lng":"-120.6629417","id":2994297,"name":"Slo Swim","address":"795 Higuera Street","country":"USA","state":"CA","city":"San Luis Obispo","postal":"93401","priority":1,"apply_to_type":1},{"lat":"30.2004548","lng":"-93.2264806","id":2994298,"name":"Southern Drifter","address":"Prien Lake Mall ","address2":"448 W. Prien Lake Road","country":"USA","state":"LA","city":"Lake Charles","postal":"70601","priority":1,"apply_to_type":1},{"lat":"34.1535324","lng":"-114.2832747","id":2994299,"name":"Spanky's Rv Marine, Llc","address":"400 W. Riverside Drive","country":"USA","state":"AZ","city":"Parker","postal":"85344","priority":1,"apply_to_type":1},{"lat":"31.531525","lng":"-83.817125","id":2994300,"name":"Splash Of Style","address":"108 Darlington Road","country":"USA","state":"GA","city":"Sylvester","postal":"31791","priority":1,"apply_to_type":1},{"lat":"27.0994846","lng":"-82.4340804","id":2994301,"name":"Splash Sun & Fun Beachwear Inc","address":"120 U.S. Highway 41 By Pass S","country":"USA","state":"FL","city":"Venice","postal":"34285","priority":1,"apply_to_type":1},{"lat":"26.1376968","lng":"-80.1041147","id":2994302,"name":"Splish Splash","address":"929 Sunrise Ln.","country":"USA","state":"FL","city":"Ft Lauderdale","postal":"33304","priority":1,"apply_to_type":1},{"lat":"27.2596441","lng":"-82.5226993","id":2994303,"name":"Splish Splash","address":"6508 South Tamiami Trail","country":"USA","state":"FL","city":"Sarasota","postal":"34231","priority":1,"apply_to_type":1},{"lat":"48.549747","lng":"-71.6503233","id":2994304,"name":"Sports Experts","address":"Centre Commercial Plaza 1 ","address2":"545 rue Collard","country":"Canada","state":"QC","city":"Alma","postal":"G8B 1N1","priority":1,"apply_to_type":1},{"lat":"48.5715494","lng":"-78.1150466","id":2994305,"name":"Sports Experts","address":"82 1Ere Avenue Est","country":"Canada","state":"QC","city":"Amos","postal":"J9T 4B2","priority":1,"apply_to_type":1},{"lat":"48.4648828","lng":"-67.432118","id":2994306,"name":"Sports Experts","address":"102 Boul. St-Benoit Ouest","country":"Canada","state":"QC","city":"Amqui","postal":"G5J 2E6","priority":1,"apply_to_type":1},{"lat":"49.2022471","lng":"-68.2583108","id":2994307,"name":"Sports Experts","address":"Centre Manicouagan","address2":"600 boul. Laflefche","country":"Canada","state":"QC","city":"Baie-Comeau","postal":"G5C 2X8","priority":1,"apply_to_type":1},{"lat":"45.562593","lng":"-73.208661","id":2994308,"name":"Sports Experts","address":"Mail Montenach ","address2":"600 boul. Sir Wilfrid Laurier","country":"Canada","state":"QC","city":"Beloeil","postal":"J3G 4J2","priority":1,"apply_to_type":1},{"lat":"48.0436197","lng":"-65.4897778","id":2994309,"name":"Sports Experts","address":"78 Route 132 Est","country":"Canada","state":"QC","city":"Bonaventure","postal":"G0C 1E0","priority":1,"apply_to_type":1},{"lat":"50.0269713","lng":"-125.243267","id":2994310,"name":"Sports Experts","address":"Tyee Plaza ","address2":"1245 Shoppers Row","country":"Canada","state":"QC","city":"Campbell River","postal":"V9W 2C7","priority":1,"apply_to_type":1},{"lat":"48.0038914","lng":"-66.6796868","id":2994311,"name":"Sports Experts","address":"100 Roseberry Street","country":"Canada","state":"NB","city":"Campbellton","postal":"E3N 2G8","priority":1,"apply_to_type":1},{"lat":"51.0915683","lng":"-115.3559681","id":2994312,"name":"Sports Experts","address":"100 - 1080 Railway Avenue","country":"Canada","state":"AB","city":"Canmore","postal":"T1W 1P4","priority":1,"apply_to_type":1},{"lat":"48.1016429","lng":"-66.1126711","id":2994313,"name":"Sports Experts","address":"720 Boul. Perron","country":"Canada","state":"QC","city":"Carleton","postal":"G0C 1J0","priority":1,"apply_to_type":1},{"lat":"45.4488567","lng":"-73.2933787","id":2994314,"name":"Sports Experts","address":"725 Ave De Salaberry","country":"Canada","state":"QC","city":"Chambly","postal":"J3L 1R2","priority":1,"apply_to_type":1},{"lat":"45.3583089","lng":"-73.7170993","id":2994315,"name":"Sports Experts","address":"298 Boul. D'Anjou","country":"Canada","state":"QC","city":"Chateauguay","postal":"J6K 1C6","priority":1,"apply_to_type":1},{"lat":"49.9135218","lng":"-74.3609834","id":2994316,"name":"Sports Experts","address":"434 3E Rue","country":"Canada","state":"QC","city":"Chibougamau","postal":"G8P 1N7","priority":1,"apply_to_type":1},{"lat":"45.1886361","lng":"-72.7545819","id":2994317,"name":"Sports Experts","address":"1777 Rue Du Sud","country":"Canada","state":"QC","city":"Cowansville","postal":"J2K 3G8","priority":1,"apply_to_type":1},{"lat":"48.8777617","lng":"-72.2285238","id":2994318,"name":"Sports Experts","address":"Les Promenades Du Boulevard ","address2":"1361 boul. Wallberg","country":"Canada","state":"QC","city":"Dolbeau-Mistassini","postal":"G8L 1H3","priority":1,"apply_to_type":1},{"lat":"45.4867953","lng":"-73.8144476","id":2994319,"name":"Sports Experts","address":"Centennial Plaza ","address2":"3345 Boul. des Sources","country":"Canada","state":"QC","city":"Dollard-Des-Ormeaux","postal":"H9B 1Z8","priority":1,"apply_to_type":1},{"lat":"45.8886392","lng":"-72.5073728","id":2994320,"name":"Sports Experts","address":"1015 Boul. St-Joseph","country":"Canada","state":"QC","city":"Drummondville","postal":"J2C 2C4","priority":1,"apply_to_type":1},{"lat":"47.3633518","lng":"-68.3271318","id":2994321,"name":"Sports Experts","address":"33 Chemin Canada","country":"Canada","state":"NB","city":"Edmonton","postal":"E3V 1T9","priority":1,"apply_to_type":1},{"lat":"56.2367087","lng":"-120.8427866","id":2994322,"name":"Sports Experts","address":"Totem Mall - 9600 ","address2":"93rd Avenue","country":"Canada","state":"BC","city":"Fort St-John","postal":"V1J 5Z2","priority":1,"apply_to_type":1},{"lat":"48.825073","lng":"-64.474034","id":2994323,"name":"Sports Experts","address":"Carrefour Gasp√©","address2":"39-35 Monte Sandy Beach","country":"Canada","state":"QC","city":"Gaspe","postal":"G4X 2A9","priority":1,"apply_to_type":1},{"lat":"45.5881982","lng":"-75.4164798","id":2994324,"name":"Sports Experts","address":"444 Avenue De Buckingham","country":"Canada","state":"QC","city":"Gatineau","postal":"J8L 2G7","priority":1,"apply_to_type":1},{"lat":"45.4153561","lng":"-72.7502287","id":2994325,"name":"Sports Experts","address":"Les Galeries De Granby","address2":"40 rue Evangeline","country":"Canada","state":"QC","city":"Granby","postal":"J2G 8K1","priority":1,"apply_to_type":1},{"lat":"47.0552008","lng":"-67.7446224","id":2994326,"name":"Sports Experts","address":"Grand Falls Shopping Center ","address2":"180 Chemin Madawaska","country":"Canada","state":"NB","city":"Grand Falls (Grand Sault)","postal":"E3Y 1A7","priority":1,"apply_to_type":1},{"lat":"55.1849826","lng":"-118.7958231","id":2994327,"name":"Sports Experts","address":"11500 100Th Avenue","country":"Canada","state":"YK","city":"Grande Prairie","postal":"T8V 4C2","priority":1,"apply_to_type":1},{"lat":"45.6097959","lng":"-74.6081966","id":2994328,"name":"Sports Experts","address":"Plaza Hawkesbury ","address2":"454 County Road 17 RR 2","country":"Canada","state":"ON","city":"Hawkesbury","postal":"K6A 2R2","priority":1,"apply_to_type":1},{"lat":"48.4267764","lng":"-71.1820893","id":2994329,"name":"Sports Experts","address":"1944 Boul. Mellon","country":"Canada","state":"QC","city":"Jonquiere","postal":"G7S 3H3","priority":1,"apply_to_type":1},{"lat":"48.3365619","lng":"-70.8959828","id":2994330,"name":"Sports Experts","address":"Les Galerie De La Baie ","address2":"2100 rue Bagot","country":"Canada","state":"QC","city":"La Baie","postal":"G7B 3Z3","priority":1,"apply_to_type":1},{"lat":"47.6205104","lng":"-70.1455833","id":2994331,"name":"Sports Experts","address":"Place Charlevoix ","address2":"375 boul. de Comporte","country":"Canada","state":"QC","city":"La Malbaie","postal":"G5A 1H9","priority":1,"apply_to_type":1},{"lat":"47.3639963","lng":"-70.036938","id":2994332,"name":"Sports Experts","address":"625 1Ere Rue","country":"Canada","state":"QC","city":"La Pocatiere","postal":"G0R 1Z0","priority":1,"apply_to_type":1},{"lat":"48.8054968","lng":"-79.2026281","id":2994333,"name":"Sports Experts","address":"46 5E Avenue Est","country":"Canada","state":"QC","city":"La Sarre","postal":"J9Z 1K9","priority":1,"apply_to_type":1},{"lat":"45.5615419","lng":"-73.7313895","id":2994334,"name":"Sports Experts","address":"Centre Laval ","address2":"1600 boul. Le Corbusier","country":"Canada","state":"QC","city":"Laval","postal":"H7S 1Y9","priority":1,"apply_to_type":1},{"lat":"45.5369442","lng":"-73.5107131","id":2994335,"name":"Sports Experts","address":"Place Longueuil ","address2":"825 rue St-Laurent Ouest","country":"Canada","state":"QC","city":"Longeuil","postal":"J4K 2V1","priority":1,"apply_to_type":1},{"lat":"45.2656434","lng":"-72.1522698","id":2994336,"name":"Sports Experts","address":"346 Rue Principale Ouest","country":"Canada","state":"QC","city":"Magog","postal":"J1X 2A9","priority":1,"apply_to_type":1},{"lat":"45.7215093","lng":"-73.6218121","id":2994337,"name":"Sports Experts","address":"20 Monte Masson","country":"Canada","state":"QC","city":"Mascouche","postal":"J7K 3B5","priority":1,"apply_to_type":1},{"lat":"48.8526816","lng":"-67.5360436","id":2994338,"name":"Sports Experts","address":"Les Galeries Du Vieux Port","address2":"750 avenue du Phare Ouest","country":"Canada","state":"QC","city":"Matane","postal":"G4W 3W8","priority":1,"apply_to_type":1},{"lat":"46.9805646","lng":"-70.5696809","id":2994339,"name":"Sports Experts","address":"Les Galeries Montmagny ","address2":"101 boul. Tache Ouest","country":"Canada","state":"QC","city":"Monmagny","postal":"G5V 3T8","priority":1,"apply_to_type":1},{"lat":"46.1192529","lng":"-74.5693902","id":2994340,"name":"Sports Experts","address":"348 Rue De Saint-Jovite","country":"Canada","state":"QC","city":"Mont-Tremblant","postal":"J8E 2Z9","priority":1,"apply_to_type":1},{"lat":"45.591415","lng":"-73.540527","id":2994341,"name":"Sports Experts","address":"Place Versailles","address2":"7275 rue Sherbrooke Est","country":"Canada","state":"QC","city":"Montreal","postal":"H1N 1E9","priority":1,"apply_to_type":1},{"lat":"45.489011","lng":"-73.5860231","id":2994342,"name":"Sports Experts","address":"Place Alexis Nihon ","address2":"1500 Avenue Atwater","country":"Canada","state":"QC","city":"Montreal","postal":"H3Z 1X5","priority":1,"apply_to_type":1},{"lat":"45.5013472","lng":"-73.5710996","id":2994343,"name":"Sports Experts","address":"930 Rue Sainte-Catherine Ouest","country":"Canada","state":"QC","city":"Montreal","postal":"H3B1E2","priority":1,"apply_to_type":1},{"lat":"46.7817463","lng":"-71.2747424","id":2994344,"name":"Sports Experts","address":"Cite Universitaire Laval ","address2":"2300 rue de la Terrasse","country":"Canada","state":"QC","city":"Quebec","postal":"G1V 0A6","priority":1,"apply_to_type":1},{"lat":"46.8230037","lng":"-71.2523398","id":2994345,"name":"Sports Experts","address":"Place Fleur De Lys ","address2":"550 boul. Wilfrid Hamel","country":"Canada","state":"QC","city":"Quebec","postal":"G1M 2S6","priority":1,"apply_to_type":1},{"lat":"46.7844812","lng":"-71.3519049","id":2994346,"name":"Sports Experts","address":"Centre Duplessis","address2":"1475 Avenue Jules-Verne","country":"Canada","state":"QC","city":"Quebec","postal":"G2G 2R8","priority":1,"apply_to_type":1},{"lat":"46.7706734","lng":"-71.2849442","id":2994347,"name":"Sports Experts","address":"Place Laurier ","address2":"2700 boul. Laurier 3iefme etage","country":"Canada","state":"QC","city":"Quebec","postal":"G1V 2L8","priority":1,"apply_to_type":1},{"lat":"46.4017517","lng":"-74.866814","id":2994348,"name":"Sports Experts","address":"1293 Rue L'Annonciation Sud","country":"Canada","state":"QC","city":"Riviere Rouge","postal":"J0T 1T0","priority":1,"apply_to_type":1},{"lat":"48.52414","lng":"-72.235711","id":2994349,"name":"Sports Experts","address":"Carrefour Jeannois ","address2":"1221 boul. Marcotte","country":"Canada","state":"QC","city":"Roberval","postal":"G8H 3B8","priority":1,"apply_to_type":1},{"lat":"48.2424387","lng":"-79.0251977","id":2994350,"name":"Sports Experts","address":"Promenade Du Cuivre ","address2":"100 rue du Terminus Ouest","country":"Canada","state":"QC","city":"Rouyn-Noranda","postal":"J9X 6H7","priority":1,"apply_to_type":1},{"lat":"45.256258","lng":"-74.1330963","id":2994351,"name":"Sports Experts","address":"277 Rue Victoria","country":"Canada","state":"QC","city":"Salaberry-De-Valleyfield","postal":"J6T 1A9","priority":1,"apply_to_type":1},{"lat":"45.402295","lng":"-71.9525377","id":2994352,"name":"Sports Experts","address":"Carrefour De L'Estrie ","address2":"3050 boul. de Portland","country":"Canada","state":"QC","city":"Sherbrooke","postal":"J1L 1K1","priority":1,"apply_to_type":1},{"lat":"46.0237113","lng":"-73.1033438","id":2994353,"name":"Sports Experts","address":"Promenade Sorel ","address2":"450 boul. Poliquin","country":"Canada","state":"QC","city":"Sorel-Tracy","postal":"J3P 7R5","priority":1,"apply_to_type":1},{"lat":"48.6547255","lng":"-72.4486061","id":2994354,"name":"Sports Experts","address":"1269 Boul. Sacre-Coeur","country":"Canada","state":"QC","city":"St-Felicien","postal":"G8K 2R2","priority":1,"apply_to_type":1},{"lat":"46.1339024","lng":"-70.6985851","id":2994355,"name":"Sports Experts","address":"Carrefour St-Georges ","address2":"8585 boul. Lacroix","country":"Canada","state":"QC","city":"St-Georges-De-Beauce","postal":"G5Y 5L6","priority":1,"apply_to_type":1},{"lat":"45.6385298","lng":"-72.9648864","id":2994356,"name":"Sports Experts","address":"Galeries St-Hyacinthe ","address2":"3200 boul. Laframboise","country":"Canada","state":"QC","city":"St-Hyacinthe","postal":"J2S 4Z5","priority":1,"apply_to_type":1},{"lat":"45.329438","lng":"-73.281129","id":2994357,"name":"Sports Experts","address":"Carrefour Richelieu ","address2":"600 rue Pierre Caisse","country":"Canada","state":"QC","city":"St-Jean-Sur-Richelieu","postal":"J3A 1M1","priority":1,"apply_to_type":1},{"lat":"47.5607085","lng":"-52.7542791","id":2994358,"name":"Sports Experts","address":"Avalon Mall ","address2":"48 Kenmount Road","country":"Canada","state":"NL","city":"St-John'S","postal":"A1B 1W3","priority":1,"apply_to_type":1},{"lat":"46.8891198","lng":"-71.8362147","id":2994359,"name":"Sports Experts","address":"220 Avenue St-Jacques","country":"Canada","state":"QC","city":"St-Raymond","postal":"G3L 3Y9","priority":1,"apply_to_type":1},{"lat":"46.7299651","lng":"-71.2739866","id":2994360,"name":"Sports Experts","address":"Mega Centre Rive-Sud ","address2":"675 rue de la Concorde","country":"Canada","state":"QC","city":"St-Romuald, Levis","postal":"G6W 8A7","priority":1,"apply_to_type":1},{"lat":"45.891202","lng":"-74.154946","id":2994361,"name":"Sports Experts","address":"Les Galeries Des Monts Inc ","address2":"75 Avenue de la Gare","country":"Canada","state":"QC","city":"St-Sauveur-Des-Monts","postal":"J0R 1R6","priority":1,"apply_to_type":1},{"lat":"46.1130363","lng":"-71.3009735","id":2994362,"name":"Sports Experts","address":"Carrefour Frontenac ","address2":"805 boul. Frontenac Est","country":"Canada","state":"QC","city":"Thetford Mines","postal":"G6G 6L5","priority":1,"apply_to_type":1},{"lat":"47.523487","lng":"-64.9099907","id":2994363,"name":"Sports Experts","address":"3372 Rue Principale","country":"Canada","state":"NB","city":"Tracadie-Sheila","postal":"E1X 1G5","priority":1,"apply_to_type":1},{"lat":"60.7189143","lng":"-135.0549213","id":2994364,"name":"Sports Experts","address":"305 Main Street","country":"Canada","state":"YK","city":"Whitehorse","postal":"Y1A 2B4","priority":1,"apply_to_type":1},{"lat":"41.2578165","lng":"-101.6944983","id":2994365,"name":"Stetson Corner Store ","address":"101 Ne-92 ","country":"USA","state":"NE","city":"Lemoyne","postal":"69146","priority":1,"apply_to_type":1},{"lat":"49.1527551","lng":"-125.9033435","id":2994366,"name":"Storm Surf Inc.","address":"444 Campbell St.","country":"Canada","state":"BC","city":"Tofino","postal":"V0R 2Z0","priority":1,"apply_to_type":1},{"lat":"48.4111086","lng":"-114.336937","id":2994367,"name":"Stumptown Snowboards","address":"128 Central Avenue","country":"USA","state":"MT","city":"Whitefish","postal":"59937","priority":1,"apply_to_type":1},{"lat":"38.1989816","lng":"-92.6391285","id":2994368,"name":"Summer Usa ","address":"1462 Bagnell Dam Blvd","country":"USA","state":"MO","city":"Lake Ozark","postal":"65049","priority":1,"apply_to_type":1},{"lat":"39.2439197","lng":"-94.5756439","id":2994369,"name":"Sun City","address":"8233 North Oak Trafficway","country":"USA","state":"MO","city":"Kansas City","postal":"64118","priority":1,"apply_to_type":1},{"lat":"50.884428","lng":"-119.8858726","id":2994370,"name":"Sun Peaks Resort Corp.","address":"1280 Alpine Rd.","country":"Canada","state":"BC","city":"Sun Peaks","postal":"V0E 5N0","priority":1,"apply_to_type":1},{"lat":"44.4230243","lng":"-78.2719781","id":2994371,"name":"Sunblockers","address":"23 Queen St","country":"Canada","state":"ON","city":"Lakefield","postal":"K0L 2H0","priority":1,"apply_to_type":1},{"lat":"49.9709391","lng":"-125.217024","id":2994372,"name":"Sunny Daze Tanning","address":"2204 South Island Hwy Unit 4","country":"Canada","state":"BC","city":"Campbell River","postal":"V9W 1C3","priority":1,"apply_to_type":1},{"lat":"42.1745553","lng":"-82.822164","id":2994373,"name":"Sunsations","address":"46 Talbot Street N.","country":"Canada","state":"ON","city":"Essex","postal":"N8M 1A2","priority":1,"apply_to_type":1},{"lat":"24.57179","lng":"-81.7378701","id":2994374,"name":"Sunset Watersports","address":"6300 3Rd Street","country":"USA","state":"FL","city":"Key West","postal":"33040","priority":1,"apply_to_type":1},{"lat":"50.275767","lng":"-119.2660453","id":2994375,"name":"Big Sun Beachwear and Tanning","address":"4311 27th Street","country":"Canada","state":"BC","city":"Vernon","postal":"V1T 4Y5","priority":1,"apply_to_type":1},{"lat":"32.9414217","lng":"-117.2032579","id":2994376,"name":"Sunsplash Inc- Kari Rubin","address":"5165 Meadows Del Mar","country":"USA","state":"CA","city":"San Diego","postal":"92130","priority":1,"apply_to_type":1},{"lat":"25.8600027","lng":"-80.1213394","id":2994377,"name":"Surf 7420, Llc","address":"7420 Collins Ave","country":"USA","state":"FL","city":"Miami Beach","postal":"33141","priority":1,"apply_to_type":1},{"lat":"36.959432","lng":"-122.019151","id":2994378,"name":"Surf City","address":"41 Municipal Wharf","country":"USA","state":"CA","city":"Santa Cruz","postal":"95060","priority":1,"apply_to_type":1},{"lat":"13.0800771","lng":"-59.5352292","id":2994379,"name":"Surf Shak - Ripples - Cses Ent","address":"Block 2 Newton Industrial Park","country":"Barbados","city":"Christ Church, Barbados","priority":1,"apply_to_type":1},{"lat":"29.3073298","lng":"-94.7927127","id":2994380,"name":"Surf Styles","address":"2119 Strand St","country":"USA","state":"TX","city":"Galveston","postal":"77550","priority":1,"apply_to_type":1},{"lat":"21.5946344","lng":"-158.1033408","id":2994381,"name":"Surf-N-Sea","address":"62-595 Kamehameha Hwy","country":"USA","state":"HI","city":"Haleiwa","postal":"96712","priority":1,"apply_to_type":1},{"lat":"26.1240428","lng":"-97.170061","id":2994382,"name":"Surf's Up","address":"5200 Padre Blvd","country":"USA","state":"TX","city":"South Padre Island","postal":"78597","priority":1,"apply_to_type":1},{"lat":"26.4829976","lng":"-81.9472908","id":2994383,"name":"SWF Beach Outlet","address":"17840 San Carlos Blvd.","country":"USA","state":"FL","city":"Fort Myers Beach","postal":"33931","priority":1,"apply_to_type":1},{"lat":"26.4829976","lng":"-81.9472908","id":2994384,"name":"SWF Management","address":"17840 San Carlos Blvd.","country":"USA","state":"FL","city":"Fort Myers Beach","postal":"33931","priority":1,"apply_to_type":1},{"lat":"26.4829976","lng":"-81.9472908","id":2994385,"name":"SWF Mango Bay Bonita, Inc.","address":"17840 San Carlos Blvd.","country":"USA","state":"FL","city":"Ft.Myers Beach,","postal":"33931","priority":1,"apply_to_type":1},{"lat":"26.4829976","lng":"-81.9472908","id":2994386,"name":"SWF Mango Bay Fmb","address":"17840 San Carlos Blvd.","country":"USA","state":"FL","city":"Fort Myers Beach","postal":"33931","priority":1,"apply_to_type":1},{"lat":"26.4829976","lng":"-81.9472908","id":2994387,"name":"SWF Mango Bay Sanibel","address":"17840 San Carlos Blvd.","country":"USA","state":"FL","city":"Ft. Myers Beach","postal":"33931","priority":1,"apply_to_type":1},{"lat":"26.4829976","lng":"-81.9472908","id":2994388,"name":"SWF Sanibel Inc.","address":"17840 San Carlos Blvd.","country":"USA","state":"FL","city":"Ft. Myers Beach","postal":"33931","priority":1,"apply_to_type":1},{"lat":"43.620138","lng":"-116.2896398","id":2994389,"name":"Swim And Run Shop","address":"8620 Fairview","country":"USA","state":"ID","city":"Boise","postal":"83704","priority":1,"apply_to_type":1},{"lat":"39.007248","lng":"-94.2993","id":2994390,"name":"Swim Things","address":"3010 W. 40 Hwy","country":"USA","state":"MO","city":"Blue Springs","postal":"64015","priority":1,"apply_to_type":1},{"lat":"44.8589463","lng":"-85.4301698","id":2994391,"name":"Swim To You","address":"11929 N. Us 31","country":"USA","state":"MI","city":"Williamsburg","postal":"49690","priority":1,"apply_to_type":1},{"lat":"27.277682","lng":"-82.4787674","id":2994392,"name":"Swim World Inc\/Dba Swim Mart","address":"4526 Mcashton St.","country":"USA","state":"FL","city":"Sarasota","postal":"34233","priority":1,"apply_to_type":1},{"lat":"50.9978191","lng":"-114.0472171","id":2994393,"name":"Swimco Aquatics Supplies Ltd","address":"6403 Burbank Rd. S.E.","country":"Canada","state":"AB","city":"Calgary","postal":"T2H 2E1","priority":1,"apply_to_type":1},{"lat":"40.2411554","lng":"-74.0459395","id":2994394,"name":"Swimsuit Station, Inc.","address":"3501 Rose Ave.","country":"USA","state":"NJ","city":"Ocean","postal":"7712","priority":1,"apply_to_type":1},{"lat":"32.7859988","lng":"-116.8300324","id":2994395,"name":"Sycuan Casino","address":"5469 Casino Way","country":"USA","state":"CA","city":"El Cajon","postal":"92019","priority":1,"apply_to_type":1},{"lat":"47.6282702","lng":"-122.1527254","id":2994397,"name":"Sylvia's Swimwear","address":"14100 NE 20th St #101","country":"USA","state":"WI","city":"Bellevue","postal":"98007","priority":1,"apply_to_type":1},{"lat":"47.7752498","lng":"-122.3096927","id":2994398,"name":"Sylvia's Swimwear","address":"20030 Ballinger Way NE","country":"USA","state":"WI","city":"Shoreline","postal":"98155","priority":1,"apply_to_type":1},{"lat":"39.3890584","lng":"-74.5599514","id":2994400,"name":"Td Associates Llc","address":"6825 Tilton Road Bldg C","country":"USA","state":"NJ","city":"Egg Harbor Twp","postal":"08234-4426","priority":1,"apply_to_type":1},{"lat":"32.7273876","lng":"-97.863551","id":2994401,"name":"Teskey's Circle T Saddlery Llp","address":"3001 W. Ih-20","country":"USA","state":"TX","city":"Weatherford","postal":"76087","priority":1,"apply_to_type":1},{"lat":"34.421531","lng":"-119.6012513","id":2994402,"name":"The Bikini Factory","address":"2275 Ortega Hill Road","country":"USA","state":"CA","city":"Summerland","postal":"93067","priority":1,"apply_to_type":1},{"lat":"41.3898419","lng":"-70.5136206","id":2994403,"name":"The Boneyard, Llc","address":"47 Main Street","country":"USA","state":"MA","city":"Edgartown","postal":"2539","priority":1,"apply_to_type":1},{"lat":"46.2463988","lng":"-114.1581322","id":2994404,"name":"The Closet","address":"164 S. 3Rd St. #A","country":"USA","state":"MT","city":"Hamilton","postal":"59840","priority":1,"apply_to_type":1},{"lat":"38.955882","lng":"-119.9433674","id":2994406,"name":"The Lingerie Lounge","address":"1001 Heavenly Village Way","country":"USA","state":"CA","city":"South Lake Tahoe","postal":"96150","priority":1,"apply_to_type":1},{"lat":"26.1197382","lng":"-80.1047128","id":2994407,"name":"The Shop At Las Olas Llc","address":"235 S. Fort Lauderdale Blvd","country":"USA","state":"FL","city":"Fort Lauderdale","postal":"33316","priority":1,"apply_to_type":1},{"lat":"45.0666959","lng":"-64.4480196","id":2994408,"name":"The Swimwear Hut","address":"9198 Commercial Street","country":"Canada","state":"NS","city":"New Minas","postal":"B4N 3E5","priority":1,"apply_to_type":1},{"lat":"33.6375715","lng":"-117.7228592","id":2994409,"name":"Tilly's - Attn: Accts Payable","address":"10 Whatney","country":"USA","state":"CA","city":"Irvine","postal":"92618","priority":1,"apply_to_type":1},{"lat":"10.6762503","lng":"-61.5463859","id":2994410,"name":"Tropical Wear","address":"Bayshore - 75 Elm Avenue","country":"Trinidad","city":"West Indies, Trinidad","priority":1,"apply_to_type":1},{"lat":"33.6913965","lng":"-78.921708","id":2994411,"name":"Tsunami Surf Shop","address":"1421 Dividend Loop","country":"USA","state":"SC","city":"Myrtle Beach","postal":"29577","priority":1,"apply_to_type":1},{"lat":"34.2405624","lng":"-119.2641243","id":2994412,"name":"Ventura Swimwear","address":"1559 Spinnaker Dr. #102","country":"USA","state":"CA","city":"Ventura","postal":"93001","priority":1,"apply_to_type":1},{"lat":"32.2941933","lng":"-64.7867351","id":2994413,"name":"Venture Holdings Ltd.","address":"11 Church Street P.O Box Dv 01","country":"Bermuda","city":"Hamilton","priority":1,"apply_to_type":1},{"lat":"25.7871209","lng":"-80.1301703","id":2994414,"name":"Vibe Of Miami, Llc","address":"1437 Collins Ave Suite A","country":"USA","state":"FL","city":"Miami Beach","postal":"33139","priority":1,"apply_to_type":1},{"lat":"43.3754586","lng":"-95.1302586","id":2994415,"name":"West Boutique","address":"1401 Lake Shore Drive","address2":"178th Street","country":"USA","state":"IA","city":"Okoboji","postal":"51355","priority":1,"apply_to_type":1},{"lat":"50.1149038","lng":"-122.9486133","id":2994416,"name":"Whistler Blackcomb Mt. Resorts","address":"4545 Blackcomb Way","country":"Canada","state":"BC","city":"Whistler","postal":"V8E 0X9","priority":1,"apply_to_type":1},{"lat":"50.1143858","lng":"-122.9560576","id":2994417,"name":"Whistler Village Sports \/ Excess","address":"4154 Village Green Unit 2","country":"Canada","state":"BC","city":"Whistler","postal":"V0N 1B4","priority":1,"apply_to_type":1},{"lat":"36.6283051","lng":"-93.4116026","id":2994418,"name":"Williams Bros. Ski And Sports","address":"348 Nautical Cir","country":"USA","state":"MO","city":"Kimberling City ","postal":"65686","priority":1,"apply_to_type":1},{"lat":"36.6106859","lng":"-93.6180997","id":2994419,"name":"Williams Bros. Ski And Sports","address":"26063 Mo-39","country":"USA","state":"MO","city":"Shell Knob","postal":"65747","priority":1,"apply_to_type":1},{"lat":"45.1278561","lng":"-87.24592","id":2994420,"name":"Wink Swimwear","address":"4160 Main St","country":"USA","state":"WI","city":"Fish Creek","postal":"54212","priority":1,"apply_to_type":1},{"lat":"29.4789109","lng":"-81.1266406","id":2994421,"name":"Z Wave Surf Shop","address":"400 S. Oceanshore Blvd","country":"USA","state":"FL","city":"Flagler Beach","postal":"32136","priority":1,"apply_to_type":1},{"lat":"14.6020005","lng":"121.0495377","id":2994422,"name":"Zephyre Group Inc.","address":"2021 Shoppsville Arcade","country":"Metro Manila","city":"San Juan City","postal":"1502","priority":1,"apply_to_type":1},{"lat":"45.5254039","lng":"-122.68202659999997","id":3020904,"name":"Poppi Swim & Sport, Inc","address":"318 NW 11th Ave","country":"USA","state":"OR","city":"Portland","postal":"97209","priority":1,"apply_to_type":1},{"lat":"49.8257226","lng":"-97.11524800000001","id":3066067,"name":"The Hula Hut","phone":"204-794-9776","address":"1504 St. Mary's Road Unit 11","country":"Canada","state":"MB","city":"Winnipeg","postal":"R2M3V7","priority":1,"apply_to_type":1},{"lat":"33.1586308","lng":"-117.3508947","id":9818435,"name":"Sun Diego (Carlsbad Twin Inns)","phone":"(442) 500-2295","address":"2978 Carlsbad Blvd #120","country":"USA","state":"CA","city":"San Diego, Carlsbad","postal":"92008","priority":1,"apply_to_type":1},{"lat":"32.7700686","lng":"-117.2516744","id":9818437,"name":"Sun Diego (Belmont Park | Mission Beach)","phone":"(858) 866-0108","address":"3126 Mission Blvd. Suite A","country":"USA","state":"CA","city":"San Diego","postal":"92109","priority":1,"apply_to_type":1},{"lat":"32.7682114","lng":"-117.166869","id":9818438,"name":"Sun Diego (Fashion Valley)","phone":"(619) 268-2295","address":"7007 Friars Rd #844","country":"USA","state":"CA","city":"San Diego","postal":"92108","priority":1,"apply_to_type":1},{"lat":"32.8715972","lng":"-117.2116588","id":9818439,"name":"Sun Diego (Westfield UTC)","phone":"(858) 646-0632","address":"4465 La Jolla Village Drive","address2":"Suite #H-14","country":"USA","state":"CA","city":"San Diego","postal":"92122","priority":1,"apply_to_type":1},{"lat":"33.4388314","lng":"-117.627257","id":9818440,"name":"Sun Diego (San Clemente)","phone":"949-441-7844","address":"101 W. Avenida Vista Hermosa Ste 562","country":"USA","state":"CA","city":"San Clemente","postal":"92673","priority":1,"apply_to_type":1},{"lat":"32.9814211","lng":"-117.2515695","id":9818441,"name":"Sun Diego (Sun Diego Flower Hill Promenade)","phone":"(858) 793-1054","address":"2600 Via De La Valle #101","country":"USA","state":"CA","city":"Del Mar","postal":"92014","priority":1,"apply_to_type":1},{"lat":"33.0714192","lng":"-117.0662262","id":9818442,"name":"Sun Diego (Westfield North County Fair)","phone":"(760) 743-4133","address":"200 E. Via Rancho Pkwy #179","country":"USA","state":"CA","city":"Escondido","postal":"92025","priority":1,"apply_to_type":1},{"lat":"45.4857986","lng":"-73.690432","id":12662320,"name":"Surf N Wear","phone":"+1 805-963-1281","address":"10 State St, Santa Barbara, United States","country":"USA","state":"CA","city":"CA","postal":"93101","priority":1,"apply_to_type":1},{"lat":"45.4857986","lng":"-73.690432","id":12662323,"name":"Mickey Finns Stores","phone":"1 860-828-6547","address":"874 Berlin Turnpike, Berlin, United States","country":"USA","state":"CT","city":"CT","postal":"06037","priority":1,"apply_to_type":1},{"lat":"45.4857986","lng":"-73.690432","id":12662324,"name":"Love","phone":"+1 225-927-7395","address":"7474 Corporate Blvd APT 301, Baton Rouge, LA","country":"USA","state":"LA","city":"Baton Rouge","postal":"70809","priority":1,"apply_to_type":1},{"lat":"45.4857986","lng":"-73.690432","id":12662325,"name":"Dalia","phone":"(519) 341-4335","address":"15 Victoria Rd N, Guelph, ON N1E 5G6","country":"Canada","state":"ON","city":"Guelph","postal":"N1E 5G6","priority":1,"apply_to_type":1},{"lat":"45.4857986","lng":"-73.690432","id":12662326,"name":"The Cottage","phone":"(705) 778-7011","address":"100 Ottawa Street East","country":"Canada","state":"ON","city":"Havelock","postal":"K0L 1Z0","priority":1,"apply_to_type":1}]